$GPRMC,112101.00,A,2458.13353,N,12111.42941,E,0.040,,140919,,,A*76
$GPVTG,,T,,M,0.040,N,0.073,K,A*23
$GPGGA,112101.00,2458.13353,N,12111.42941,E,1,06,2.37,130.0,M,16.4,M,,*5B
$GPGSA,A,3,20,10,25,21,31,32,,,,,,,4.02,2.37,3.25*02
$GPGSV,3,1,10,10,56,325,30,12,43,096,,14,12,287,23,15,22,080,*72
$GPGSV,3,2,10,20,86,260,29,21,27,213,29,24,38,035,,25,40,156,34*7A
$GPGSV,3,3,10,31,14,232,32,32,28,304,28*7B
$GPGLL,2458.13353,N,12111.42941,E,112101.00,A,A*6F
$GPTXT,01,01,02,u-blox ag - www.u-blox.com*50
$GPTXT,01,01,02,HW  UBX-G60xx  00040007 FF7FFFFFp*53
$GPTXT,01,01,02,ROM CORE 7.03 (45969) Mar 17 2011 16:18:34*59
$GPTXT,01,01,02,ANTSUPERV=AC SD PDoS SR*20
$GPTXT,01,01,02,ANTSTATUS=OK*3B
$GPRMC,112102.00,A,2458.13340,N,12111.42912,E,0.505,,140919,,,A*75
$GPVTG,,T,,M,0.505,N,0.934,K,A*2D
$GPGGA,112102.00,2458.13340,N,12111.42912,E,1,06,2.37,130.4,M,16.4,M,,*58
$GPGSA,A,3,20,10,25,21,31,32,,,,,,,4.03,2.37,3.25*03
$GPGSV,3,1,10,10,56,325,31,12,43,096,,14,12,287,24,15,22,080,*74
$GPGSV,3,2,10,20,86,260,29,21,27,213,33,24,38,035,,25,40,156,34*71
$GPGSV,3,3,10,31,14,232,31,32,28,304,27*77
$GPGLL,2458.13340,N,12111.42912,E,112102.00,A,A*68
$GPRMC,112103.00,A,2458.13365,N,12111.42838,E,2.149,0.47,140919,,,A*69
$GPVTG,0.47,T,,M,2.149,N,3.980,K,A*32
$GPGGA,112103.00,2458.13365,N,12111.42838,E,1,06,2.37,130.8,M,16.4,M,,*5B
$GPGSA,A,3,20,10,25,21,31,32,,,,,,,4.03,2.37,3.25*03
$GPGSV,3,1,10,10,56,325,35,12,43,096,,14,12,287,25,15,22,080,*71
$GPGSV,3,2,10,20,86,260,29,21,27,213,33,24,38,035,19,25,40,156,35*78
$GPGSV,3,3,10,31,14,232,32,32,28,304,26*75
$GPGLL,2458.13365,N,12111.42838,E,112103.00,A,A*67
$GPRMC,112104.00,A,2458.13401,N,12111.42773,E,2.463,333.04,140919,,,A*62
$GPVTG,333.04,T,,M,2.463,N,4.562,K,A*3C
$GPGGA,112104.00,2458.13401,N,12111.42773,E,1,06,2.37,130.8,M,16.4,M,,*59
$GPGSA,A,3,20,10,25,21,31,32,,,,,,,4.03,2.37,3.26*00
$GPGSV,3,1,10,10,56,325,27,12,43,096,,14,12,287,24,15,22,080,*73
$GPGSV,3,2,10,20,86,260,28,21,27,213,33,24,38,035,20,25,40,156,32*74
$GPGSV,3,3,10,31,14,232,33,32,28,304,28*7A
$GPGLL,2458.13401,N,12111.42773,E,112104.00,A,A*65
$GPRMC,112105.00,A,2458.13446,N,12111.42709,E,2.576,320.62,140919,,,A*6A
$GPVTG,320.62,T,,M,2.576,N,4.771,K,A*3B
$GPGGA,112105.00,2458.13446,N,12111.42709,E,1,06,2.37,130.8,M,16.4,M,,*56
$GPGSA,A,3,20,10,25,21,31,32,,,,,,,4.03,2.37,3.26*00
$GPGSV,3,1,10,10,56,325,28,12,43,096,,14,12,287,22,15,22,080,*7A
$GPGSV,3,2,10,20,86,260,28,21,27,213,33,24,38,035,22,25,40,156,31*75
$GPGSV,3,3,10,31,14,232,33,32,28,304,27*75
$GPGLL,2458.13446,N,12111.42709,E,112105.00,A,A*6A
$GPRMC,112106.00,A,2458.13492,N,12111.42640,E,2.658,314.92,140919,,,A*6B
$GPVTG,314.92,T,,M,2.658,N,4.923,K,A*35
$GPGGA,112106.00,2458.13492,N,12111.42640,E,1,06,2.37,130.9,M,16.4,M,,*51
$GPGSA,A,3,20,10,25,21,31,32,,,,,,,4.03,2.37,3.26*00
$GPGSV,3,1,10,10,56,325,27,12,43,096,,14,12,287,22,15,22,080,19*7D
$GPGSV,3,2,10,20,86,260,29,21,27,213,34,24,38,035,21,25,40,156,32*73
$GPGSV,3,3,10,31,14,232,33,32,28,304,29*7B
$GPGLL,2458.13492,N,12111.42640,E,112106.00,A,A*6C
$GPRMC,112107.00,A,2458.13540,N,12111.42568,E,2.801,313.30,140919,,,A*60
$GPVTG,313.30,T,,M,2.801,N,5.187,K,A*3F
$GPGGA,112107.00,2458.13540,N,12111.42568,E,1,06,2.37,131.2,M,16.4,M,,*5D
$GPGSA,A,3,20,10,25,21,31,32,,,,,,,4.03,2.37,3.26*00
$GPGSV,3,1,10,10,56,325,24,12,43,096,19,14,12,287,22,15,22,080,19*76
$GPGSV,3,2,10,20,86,260,29,21,27,213,33,24,38,035,19,25,40,156,32*7F
$GPGSV,3,3,10,31,14,232,34,32,28,304,29*7C
$GPGLL,2458.13540,N,12111.42568,E,112107.00,A,A*6A
$GPRMC,112108.00,A,2458.13592,N,12111.42512,E,2.647,314.33,140919,,,A*65
$GPVTG,314.33,T,,M,2.647,N,4.902,K,A*33
$GPGGA,112108.00,2458.13592,N,12111.42512,E,1,06,2.37,131.1,M,16.4,M,,*53
$GPGSA,A,3,20,10,25,21,31,32,,,,,,,4.03,2.37,3.26*00
$GPGSV,3,1,10,10,56,325,24,12,43,096,29,14,12,287,22,15,22,080,17*7B
$GPGSV,3,2,10,20,86,260,28,21,27,213,33,24,38,035,17,25,40,156,32*70
$GPGSV,3,3,10,31,14,232,35,32,28,305,29*7C
$GPGLL,2458.13592,N,12111.42512,E,112108.00,A,A*67
$GPRMC,112109.00,A,2458.13651,N,12111.42463,E,2.638,314.40,140919,,,A*63
$GPVTG,314.40,T,,M,2.638,N,4.885,K,A*31
$GPGGA,112109.00,2458.13651,N,12111.42463,E,1,06,2.37,130.3,M,16.4,M,,*5A
$GPGSA,A,3,20,10,25,21,31,32,,,,,,,4.03,2.37,3.26*00
$GPGSV,3,1,10,10,56,325,22,12,43,096,19,14,12,287,23,15,22,080,16*7E
$GPGSV,3,2,10,20,86,260,26,21,27,213,33,24,38,035,18,25,40,156,33*70
$GPGSV,3,3,10,31,14,232,35,32,28,305,29*7C
$GPGLL,2458.13651,N,12111.42463,E,112109.00,A,A*6D
$GPRMC,112107.00,A,2458.13701,N,12111.42393,E,2.717,315.36,140919,,,A*6D
$GPVTG,315.36,T,,M,2.717,N,5.032,K,A*38
$GPGGA,112107.00,2458.13701,N,12111.42393,E,1,06,2.37,130.6,M,16.4,M,,*5D
$GPGSA,A,3,20,10,25,21,31,32,,,,,,,4.03,2.37,3.26*00
$GPGSV,3,1,10,10,56,325,30,12,43,096,19,14,12,287,23,15,22,080,16*7D
$GPGSV,3,2,10,20,86,260,24,21,27,213,34,24,38,035,18,25,40,156,32*74
$GPGSV,3,3,10,31,14,232,32,32,28,305,30*73
$GPGLL,2458.13701,N,12111.42393,E,112107.00,A,A*6F
$GPRMC,112108.00,A,2458.13752,N,12111.42323,E,2.754,314.17,140919,,,A*6A
$GPVTG,314.17,T,,M,2.754,N,5.101,K,A*3C
$GPGGA,112108.00,2458.13752,N,12111.42323,E,1,06,2.37,130.7,M,16.4,M,,*5E
$GPGSA,A,3,20,10,25,21,31,32,,,,,,,4.03,2.37,3.26*00
$GPGSV,3,1,10,10,56,325,34,12,43,096,18,14,12,287,24,15,22,080,15*7C
$GPGSV,3,2,10,20,86,260,25,21,27,213,34,24,38,035,20,25,40,156,32*7E
$GPGSV,3,3,10,31,14,232,32,32,28,305,30*73
$GPGLL,2458.13752,N,12111.42323,E,112108.00,A,A*6D
$GPRMC,112109.00,A,2458.13818,N,12111.42269,E,2.862,317.23,140919,,,A*6B
$GPVTG,317.23,T,,M,2.862,N,5.301,K,A*30
$GPGGA,112109.00,2458.13818,N,12111.42269,E,1,06,2.37,130.8,M,16.4,M,,*5E
$GPGSA,A,3,20,10,25,21,31,32,,,,,,,4.03,2.37,3.26*00
$GPGSV,3,1,10,10,56,325,30,12,43,096,17,14,12,287,24,15,22,080,15*77
$GPGSV,3,2,10,20,86,260,25,21,27,213,33,24,38,035,20,25,40,156,31*7A
$GPGSV,3,3,10,31,14,232,35,32,28,305,28*7D
$GPGLL,2458.13818,N,12111.42269,E,112109.00,A,A*62
$GPRMC,112110.00,A,2458.13864,N,12111.42207,E,2.567,314.66,140919,,,A*6A
$GPVTG,314.66,T,,M,2.567,N,4.755,K,A*3E
$GPGGA,112110.00,2458.13864,N,12111.42207,E,1,06,2.37,130.7,M,16.4,M,,*5A
$GPGSA,A,3,20,10,25,21,31,32,,,,,,,4.03,2.37,3.26*00
$GPGSV,3,1,10,10,56,325,30,12,43,096,16,14,12,287,24,15,22,080,13*70
$GPGSV,3,2,10,20,86,260,27,21,27,213,32,24,38,035,17,25,40,156,26*7B
$GPGSV,3,3,10,31,14,232,34,32,28,305,27*73
$GPGLL,2458.13864,N,12111.42207,E,112110.00,A,A*69
$GPRMC,112111.00,A,2458.13908,N,12111.42149,E,2.442,312.98,140919,,,A*68
$GPVTG,312.98,T,,M,2.442,N,4.522,K,A*3D
$GPGGA,112111.00,2458.13908,N,12111.42149,E,1,06,2.37,130.8,M,16.4,M,,*56
$GPGSA,A,3,20,10,25,21,31,32,,,,,,,4.03,2.37,3.26*00
$GPGSV,3,1,10,10,56,325,30,12,43,096,16,14,12,287,23,15,22,080,14*70
$GPGSV,3,2,10,20,86,260,28,21,27,213,33,24,38,035,15,25,40,156,27*76
$GPGSV,3,3,10,31,14,232,35,32,28,305,27*72
$GPGLL,2458.13908,N,12111.42149,E,112111.00,A,A*6A
$GPRMC,112112.00,A,2458.13946,N,12111.42082,E,2.420,311.65,140919,,,A*62
$GPVTG,311.65,T,,M,2.420,N,4.482,K,A*33
$GPGGA,112112.00,2458.13946,N,12111.42082,E,1,06,2.37,131.0,M,16.4,M,,*50
$GPGSA,A,3,20,10,25,21,31,32,,,,,,,4.03,2.37,3.26*00
$GPGSV,3,1,10,10,56,325,24,12,43,096,15,14,12,287,22,15,22,080,14*77
$GPGSV,3,2,10,20,86,260,28,21,27,213,32,24,38,035,14,25,40,156,27*76
$GPGSV,3,3,10,31,14,232,35,32,28,305,26*73
$GPGLL,2458.13946,N,12111.42082,E,112112.00,A,A*65
$GPRMC,112113.00,A,2458.13998,N,12111.42030,E,2.452,314.58,140919,,,A*67
$GPVTG,314.58,T,,M,2.452,N,4.542,K,A*30
$GPGGA,112113.00,2458.13998,N,12111.42030,E,1,06,2.37,131.1,M,16.4,M,,*5A
$GPGSA,A,3,20,10,25,21,31,32,,,,,,,4.03,2.37,3.26*00
$GPGSV,3,1,10,10,56,325,25,12,43,096,14,14,12,287,19,15,22,080,14*7F
$GPGSV,3,2,10,20,86,260,27,21,27,213,32,24,38,035,13,25,40,156,28*71
$GPGSV,3,3,10,31,14,232,35,32,28,305,26*73
$GPGLL,2458.13998,N,12111.42030,E,112113.00,A,A*6E
$GPRMC,112114.00,A,2458.14051,N,12111.41972,E,2.556,316.47,140919,,,A*6E
$GPVTG,316.47,T,,M,2.556,N,4.734,K,A*3A
$GPGGA,112114.00,2458.14051,N,12111.41972,E,1,06,2.37,131.2,M,16.4,M,,*59
$GPGSA,A,3,20,10,25,21,31,32,,,,,,,4.03,2.37,3.26*00
$GPGSV,3,1,10,10,56,325,23,12,43,096,12,14,12,287,19,15,22,080,14*7F
$GPGSV,3,2,10,20,86,260,27,21,27,213,32,24,38,035,10,25,40,156,29*73
$GPGSV,3,3,10,31,14,232,35,32,28,305,27*72
$GPGLL,2458.14051,N,12111.41972,E,112114.00,A,A*6E
$GPRMC,112115.00,A,2458.14107,N,12111.41911,E,2.702,317.73,140919,,,A*6D
$GPVTG,317.73,T,,M,2.702,N,5.005,K,A*3B
$GPGGA,112115.00,2458.14107,N,12111.41911,E,1,06,2.37,131.2,M,16.4,M,,*5F
$GPGSA,A,3,20,10,25,21,31,32,,,,,,,4.03,2.37,3.26*00
$GPGSV,3,1,10,10,56,325,21,12,43,096,15,14,12,287,19,15,22,080,*7F
$GPGSV,3,2,10,20,86,260,28,21,27,213,35,24,38,035,11,25,40,156,29*7A
$GPGSV,3,3,10,31,14,232,36,32,28,305,25*73
$GPGLL,2458.14107,N,12111.41911,E,112115.00,A,A*68
$GPRMC,112116.00,A,2458.14160,N,12111.41853,E,2.690,317.31,140919,,,A*64
$GPVTG,317.31,T,,M,2.690,N,4.982,K,A*30
$GPGGA,112116.00,2458.14160,N,12111.41853,E,1,06,2.37,131.2,M,16.4,M,,*5A
$GPGSA,A,3,20,10,25,21,31,32,,,,,,,4.03,2.37,3.26*00
$GPGSV,3,1,10,10,56,325,19,12,43,096,17,14,12,287,19,15,22,080,*76
$GPGSV,3,2,10,20,86,260,27,21,27,213,34,24,38,035,15,25,40,156,29*70
$GPGSV,3,3,10,31,14,232,36,32,28,305,27*71
$GPGLL,2458.14160,N,12111.41853,E,112116.00,A,A*6D
$GPRMC,112117.00,A,2458.14218,N,12111.41800,E,2.688,318.50,140919,,,A*6E
$GPVTG,318.50,T,,M,2.688,N,4.977,K,A*3B
$GPGGA,112117.00,2458.14218,N,12111.41800,E,1,06,2.37,131.2,M,16.4,M,,*51
$GPGSA,A,3,20,10,25,21,31,32,,,,,,,4.03,2.37,3.26*00
$GPGSV,3,1,10,10,56,325,21,12,43,096,17,14,12,287,18,15,22,080,*7C
$GPGSV,3,2,10,20,86,260,26,21,27,213,33,24,38,035,15,25,40,156,30*7E
$GPGSV,3,3,10,31,14,232,34,32,28,305,27*73
$GPGLL,2458.14218,N,12111.41800,E,112117.00,A,A*66
$GPRMC,112118.00,A,2458.14273,N,12111.41738,E,2.773,317.24,140919,,,A*61
$GPVTG,317.24,T,,M,2.773,N,5.135,K,A*3D
$GPGGA,112118.00,2458.14273,N,12111.41738,E,1,06,2.37,131.2,M,16.4,M,,*57
$GPGSA,A,3,20,10,25,21,31,32,,,,,,,4.03,2.37,3.26*00
$GPGSV,3,1,10,10,56,325,30,12,43,096,19,14,12,287,16,15,22,080,*7C
$GPGSV,3,2,10,20,86,260,26,21,27,213,33,24,38,035,14,25,40,156,30*7F
$GPGSV,3,3,10,31,14,232,34,32,28,305,27*73
$GPGLL,2458.14273,N,12111.41738,E,112118.00,A,A*60
$GPRMC,112119.00,A,2458.14321,N,12111.41674,E,2.690,314.77,140919,,,A*66
$GPVTG,314.77,T,,M,2.690,N,4.982,K,A*31
$GPGGA,112119.00,2458.14321,N,12111.41674,E,1,06,2.37,131.4,M,16.4,M,,*5F
$GPGSA,A,3,20,10,25,21,31,32,,,,,,,4.03,2.37,3.26*00
$GPGSV,3,1,10,10,56,325,30,12,43,096,21,14,12,287,13,15,22,080,*72
$GPGSV,3,2,10,20,86,260,25,21,27,213,33,24,38,035,12,25,40,156,30*7A
$GPGSV,3,3,10,31,14,232,33,32,28,305,27*74
$GPGLL,2458.14321,N,12111.41674,E,112119.00,A,A*6E
$GPRMC,112120.00,A,2458.14371,N,12111.41615,E,2.672,313.32,140919,,,A*64
$GPVTG,313.32,T,,M,2.672,N,4.948,K,A*3D
$GPGGA,112120.00,2458.14371,N,12111.41615,E,1,06,2.37,131.5,M,16.4,M,,*56
$GPGSA,A,3,20,10,25,21,31,32,,,,,,,4.03,2.37,3.26*00
$GPGSV,3,1,10,10,56,325,30,12,43,096,20,14,12,287,14,15,22,080,*74
$GPGSV,3,2,10,20,86,260,26,21,27,213,32,24,38,035,16,25,40,156,30*7C
$GPGSV,3,3,10,31,14,232,32,32,28,305,24*76
$GPGLL,2458.14371,N,12111.41615,E,112120.00,A,A*66
$GPRMC,112121.00,A,2458.14410,N,12111.41539,E,2.777,307.24,140919,,,A*6E
$GPVTG,307.24,T,,M,2.777,N,5.142,K,A*38
$GPGGA,112121.00,2458.14410,N,12111.41539,E,1,06,2.37,131.6,M,16.4,M,,*59
$GPGSA,A,3,20,10,25,21,31,32,,,,,,,4.03,2.37,3.26*00
$GPGSV,3,1,10,10,56,325,30,12,43,096,21,14,12,287,14,15,22,080,*75
$GPGSV,3,2,10,20,86,260,26,21,27,213,32,24,38,035,21,25,40,156,30*78
$GPGSV,3,3,10,31,14,232,32,32,28,305,23*71
$GPGLL,2458.14410,N,12111.41539,E,112121.00,A,A*6A
$GPRMC,112122.00,A,2458.14452,N,12111.41475,E,2.721,305.36,140919,,,A*60
$GPVTG,305.36,T,,M,2.721,N,5.039,K,A*37
$GPGGA,112122.00,2458.14452,N,12111.41475,E,1,06,2.37,131.4,M,16.4,M,,*57
$GPGSA,A,3,20,10,25,21,31,32,,,,,,,4.03,2.37,3.26*00
$GPGSV,3,1,10,10,56,325,32,12,43,096,22,14,12,287,09,15,22,080,*78
$GPGSV,3,2,10,20,86,260,27,21,27,213,35,24,38,035,25,25,40,156,31*7B
$GPGSV,3,3,10,31,14,232,33,32,28,305,22*71
$GPGLL,2458.14452,N,12111.41475,E,112122.00,A,A*66
$GPRMC,112123.00,A,2458.14502,N,12111.41414,E,2.607,306.21,140919,,,A*62
$GPVTG,306.21,T,,M,2.607,N,4.829,K,A*3F
$GPGGA,112123.00,2458.14502,N,12111.41414,E,1,06,2.37,131.2,M,16.4,M,,*53
$GPGSA,A,3,20,10,25,21,31,32,,,,,,,4.03,2.37,3.26*00
$GPGSV,3,1,10,10,56,325,31,12,43,096,21,14,12,287,08,15,22,080,*79
$GPGSV,3,2,10,20,86,260,27,21,27,213,33,24,38,035,27,25,40,156,31*7F
$GPGSV,3,3,10,31,14,232,36,32,28,305,30*77
$GPGLL,2458.14502,N,12111.41414,E,112123.00,A,A*64
$GPRMC,112124.00,A,2458.14543,N,12111.41352,E,2.440,306.63,140919,,,A*62
$GPVTG,306.63,T,,M,2.440,N,4.519,K,A*36
$GPGGA,112124.00,2458.14543,N,12111.41352,E,1,06,2.37,131.2,M,16.4,M,,*54
$GPGSA,A,3,20,10,25,21,31,32,,,,,,,4.03,2.37,3.26*00
$GPGSV,3,1,10,10,56,325,30,12,43,096,19,14,12,287,09,15,22,080,*72
$GPGSV,3,2,10,20,86,260,28,21,27,213,34,24,38,035,25,25,40,156,32*76
$GPGSV,3,3,10,31,14,232,35,32,28,305,29*7C
$GPGLL,2458.14543,N,12111.41352,E,112124.00,A,A*63
$GPRMC,112125.00,A,2458.14582,N,12111.41286,E,2.452,305.66,140919,,,A*63
$GPVTG,305.66,T,,M,2.452,N,4.541,K,A*3E
$GPGGA,112125.00,2458.14582,N,12111.41286,E,1,06,2.37,131.3,M,16.4,M,,*51
$GPGSA,A,3,20,10,25,21,31,32,,,,,,,4.03,2.37,3.26*00
$GPGSV,3,1,10,10,56,325,25,12,43,096,17,14,12,287,09,15,22,080,*78
$GPGSV,3,2,10,20,86,260,28,21,27,213,34,24,38,035,23,25,40,156,32*70
$GPGSV,3,3,10,31,14,232,33,32,28,305,30*72
$GPGLL,2458.14582,N,12111.41286,E,112125.00,A,A*67
$GPRMC,112126.00,A,2458.14614,N,12111.41216,E,2.484,302.63,140919,,,A*6C
$GPVTG,302.63,T,,M,2.484,N,4.601,K,A*30
$GPGGA,112126.00,2458.14614,N,12111.41216,E,1,06,2.37,131.4,M,16.4,M,,*50
$GPGSA,A,3,20,10,25,21,31,32,,,,,,,4.04,2.37,3.26*07
$GPGSV,3,1,10,10,56,325,25,12,43,096,16,14,12,287,11,15,22,080,*70
$GPGSV,3,2,10,20,86,260,28,21,27,213,34,24,38,035,18,25,40,156,32*78
$GPGSV,3,3,10,31,14,232,34,32,28,305,29*7D
$GPGLL,2458.14614,N,12111.41216,E,112126.00,A,A*61
$GPRMC,112127.00,A,2458.14652,N,12111.41148,E,2.655,301.70,140919,,,A*68
$GPVTG,301.70,T,,M,2.655,N,4.917,K,A*37
$GPGGA,112127.00,2458.14652,N,12111.41148,E,1,06,2.37,131.4,M,16.4,M,,*5B
$GPGSA,A,3,20,10,25,21,31,32,,,,,,,4.04,2.37,3.26*07
$GPGSV,3,1,10,10,56,325,22,12,43,096,17,14,12,287,11,15,22,080,*76
$GPGSV,3,2,10,20,86,260,27,21,27,213,34,24,38,035,17,25,40,156,33*79
$GPGSV,3,3,10,31,14,232,34,32,28,305,27*73
$GPGLL,2458.14652,N,12111.41148,E,112127.00,A,A*6A
$GPRMC,112128.00,A,2458.14694,N,12111.41091,E,2.645,302.21,140919,,,A*6E
$GPVTG,302.21,T,,M,2.645,N,4.898,K,A*37
$GPGGA,112128.00,2458.14694,N,12111.41091,E,1,06,2.37,131.3,M,16.4,M,,*5C
$GPGSA,A,3,20,10,25,21,31,32,,,,,,,4.04,2.37,3.26*07
$GPGSV,3,1,10,10,56,325,23,12,43,096,20,14,12,287,08,15,22,080,*7B
$GPGSV,3,2,10,20,86,260,27,21,27,213,33,24,38,035,18,25,40,156,32*70
$GPGSV,3,3,10,31,14,232,32,32,28,305,24*76
$GPGLL,2458.14694,N,12111.41091,E,112128.00,A,A*6A
$GPRMC,112129.00,A,2458.14714,N,12111.41028,E,2.418,299.09,140919,,,A*67
$GPVTG,299.09,T,,M,2.418,N,4.479,K,A*37
$GPGGA,112129.00,2458.14714,N,12111.41028,E,1,06,2.37,131.2,M,16.4,M,,*57
$GPGSA,A,3,20,10,25,21,31,32,,,,,,,4.04,2.37,3.26*07
$GPGSV,3,1,10,10,56,325,24,12,43,096,22,14,12,287,07,15,22,080,*71
$GPGSV,3,2,10,20,86,260,26,21,27,213,33,24,38,035,18,25,40,156,32*71
$GPGSV,3,3,10,31,14,232,34,32,28,305,23*77
$GPGLL,2458.14714,N,12111.41028,E,112129.00,A,A*60
$GPRMC,112130.00,A,2458.14763,N,12111.40970,E,2.599,300.65,140919,,,A*69
$GPVTG,300.65,T,,M,2.599,N,4.813,K,A*34
$GPGGA,112130.00,2458.14763,N,12111.40970,E,1,06,2.37,131.0,M,16.4,M,,*58
$GPGSA,A,3,20,10,25,21,31,32,,,,,,,4.04,2.37,3.26*07
$GPGSV,3,1,10,10,56,325,31,12,43,096,24,14,12,287,09,15,22,080,*7D
$GPGSV,3,2,10,20,86,260,27,21,27,213,34,24,38,035,19,25,40,156,32*76
$GPGSV,3,3,10,31,14,232,35,32,28,305,21*74
$GPGLL,2458.14763,N,12111.40970,E,112130.00,A,A*6D
$GPRMC,112131.00,A,2458.14801,N,12111.40907,E,2.717,297.69,140919,,,A*64
$GPVTG,297.69,T,,M,2.717,N,5.031,K,A*3A
$GPGGA,112131.00,2458.14801,N,12111.40907,E,1,06,2.37,130.6,M,16.4,M,,*55
$GPGSA,A,3,20,10,25,21,31,32,,,,,,,4.04,2.37,3.27*06
$GPGSV,3,1,10,10,56,325,30,12,43,096,25,14,12,287,08,15,22,080,*7C
$GPGSV,3,2,10,20,86,260,27,21,27,213,32,24,38,035,18,25,40,156,32*71
$GPGSV,3,3,10,31,14,232,31,32,28,305,21*70
$GPGLL,2458.14801,N,12111.40907,E,112131.00,A,A*67
$GPRMC,112132.00,A,2458.14836,N,12111.40838,E,2.750,294.60,140919,,,A*67
$GPVTG,294.60,T,,M,2.750,N,5.093,K,A*3B
$GPGGA,112132.00,2458.14836,N,12111.40838,E,1,06,2.37,130.3,M,16.4,M,,*5A
$GPGSA,A,3,20,10,25,21,31,32,,,,,,,4.04,2.37,3.27*06
$GPGSV,3,1,10,10,56,325,30,12,43,096,24,14,12,287,08,15,22,080,*7D
$GPGSV,3,2,10,20,86,260,27,21,27,213,33,24,38,035,17,25,40,156,32*7F
$GPGSV,3,3,10,31,14,232,32,32,28,305,19*78
$GPGLL,2458.14836,N,12111.40838,E,112132.00,A,A*6D
$GPRMC,112133.00,A,2458.14879,N,12111.40764,E,2.907,293.76,140919,,,A*67
$GPVTG,293.76,T,,M,2.907,N,5.383,K,A*35
$GPGGA,112133.00,2458.14879,N,12111.40764,E,1,06,2.37,130.1,M,16.4,M,,*54
$GPGSA,A,3,20,10,25,21,31,32,,,,,,,4.04,2.37,3.27*06
$GPGSV,3,1,10,10,56,325,30,12,43,096,23,14,12,287,08,15,22,080,*7A
$GPGSV,3,2,10,20,86,260,27,21,27,213,33,24,38,035,17,25,40,156,32*7F
$GPGSV,3,3,10,31,14,232,29,32,28,305,19*72
$GPGLL,2458.14879,N,12111.40764,E,112133.00,A,A*61
$GPRMC,112134.00,A,2458.14915,N,12111.40701,E,2.645,293.57,140919,,,A*62
$GPVTG,293.57,T,,M,2.645,N,4.898,K,A*3F
$GPGGA,112134.00,2458.14915,N,12111.40701,E,1,06,2.38,129.9,M,16.4,M,,*54
$GPGSA,A,3,20,10,25,21,31,32,,,,,,,4.04,2.38,3.27*09
$GPGSV,3,1,10,10,56,325,31,12,43,096,22,14,12,287,08,15,22,080,*7A
$GPGSV,3,2,10,20,86,260,27,21,27,213,32,24,38,035,15,25,40,156,31*7F
$GPGSV,3,3,10,31,14,232,30,32,28,305,21*71
$GPGLL,2458.14915,N,12111.40701,E,112134.00,A,A*6E
$GPRMC,112135.00,A,2458.14940,N,12111.40632,E,2.539,291.35,140919,,,A*6C
$GPVTG,291.35,T,,M,2.539,N,4.703,K,A*3C
$GPGGA,112135.00,2458.14940,N,12111.40632,E,1,06,2.38,129.8,M,16.4,M,,*55
$GPGSA,A,3,20,10,25,21,31,32,,,,,,,4.04,2.38,3.27*09
$GPGSV,3,1,10,10,56,325,31,12,43,096,23,14,12,287,09,15,22,080,*7A
$GPGSV,3,2,10,20,86,260,27,21,27,213,33,24,38,035,18,25,40,156,31*73
$GPGSV,3,3,10,31,14,232,31,32,28,305,23*72
$GPGLL,2458.14940,N,12111.40632,E,112135.00,A,A*6E
$GPRMC,112136.00,A,2458.14965,N,12111.40565,E,2.512,290.32,140919,,,A*66
$GPVTG,290.32,T,,M,2.512,N,4.652,K,A*36
$GPGGA,112136.00,2458.14965,N,12111.40565,E,1,06,2.38,129.7,M,16.4,M,,*5F
$GPGSA,A,3,20,10,25,21,31,32,,,,,,,4.04,2.38,3.27*09
$GPGSV,3,1,10,10,56,325,25,12,43,096,24,14,12,287,10,15,22,080,*70
$GPGSV,3,2,10,20,86,260,28,21,27,213,33,24,38,035,22,25,40,156,31*75
$GPGSV,3,3,10,31,14,232,30,32,28,305,22*72
$GPGLL,2458.14965,N,12111.40565,E,112136.00,A,A*6B
$GPRMC,112137.00,A,2458.14991,N,12111.40498,E,2.573,288.20,140919,,,A*62
$GPVTG,288.20,T,,M,2.573,N,4.765,K,A*3E
$GPGGA,112137.00,2458.14991,N,12111.40498,E,1,06,2.38,129.2,M,16.4,M,,*53
$GPGSA,A,3,20,10,25,21,31,32,,,,,,,4.04,2.38,3.27*09
$GPGSV,3,1,10,10,56,325,24,12,43,096,25,14,12,287,19,15,22,080,*79
$GPGSV,3,2,10,20,86,260,28,21,27,213,34,24,38,035,25,25,40,156,33*77
$GPGSV,3,3,10,31,14,232,36,32,28,305,25*73
$GPGLL,2458.14991,N,12111.40498,E,112137.00,A,A*62
$GPRMC,112138.00,A,2458.15015,N,12111.40423,E,2.609,287.45,140919,,,A*6B
$GPVTG,287.45,T,,M,2.609,N,4.832,K,A*31
$GPGGA,112138.00,2458.15015,N,12111.40423,E,1,06,2.38,129.2,M,16.4,M,,*58
$GPGSA,A,3,20,10,25,21,31,32,,,,,,,4.04,2.38,3.27*09
$GPGSV,3,1,10,10,56,325,31,12,43,096,25,14,12,287,20,15,22,080,*77
$GPGSV,3,2,10,20,86,260,29,21,27,213,35,24,38,035,25,25,40,156,32*76
$GPGSV,3,3,10,31,14,232,31,32,28,305,25*74
$GPGLL,2458.15015,N,12111.40423,E,112138.00,A,A*69
$GPRMC,112139.00,A,2458.15044,N,12111.40346,E,2.750,288.09,140919,,,A*60
$GPVTG,288.09,T,,M,2.750,N,5.093,K,A*39
$GPGGA,112139.00,2458.15044,N,12111.40346,E,1,06,2.38,129.0,M,16.4,M,,*5B
$GPGSA,A,3,20,10,25,21,31,32,,,,,,,4.04,2.38,3.27*09
$GPGSV,3,1,10,10,56,325,23,12,43,096,27,14,12,287,20,15,22,080,*76
$GPGSV,3,2,10,20,86,260,28,21,27,213,33,24,38,035,24,25,40,156,31*73
$GPGSV,3,3,10,31,14,232,30,32,28,305,25*75
$GPGLL,2458.15044,N,12111.40346,E,112139.00,A,A*68
$GPRMC,112140.00,A,2458.15063,N,12111.40260,E,2.786,287.24,140919,,,A*65
$GPVTG,287.24,T,,M,2.786,N,5.160,K,A*3F
$GPGGA,112140.00,2458.15063,N,12111.40260,E,1,06,2.38,129.1,M,16.4,M,,*54
$GPGSA,A,3,20,10,25,21,31,32,,,,,,,4.04,2.38,3.27*09
$GPGSV,3,1,10,10,56,325,29,12,43,096,28,14,12,287,18,15,22,080,*78
$GPGSV,3,2,10,20,86,260,26,21,27,213,36,24,38,035,22,25,40,156,31*7E
$GPGSV,3,3,10,31,14,232,31,32,28,305,27*76
$GPGLL,2458.15063,N,12111.40260,E,112140.00,A,A*66
$GPRMC,112141.00,A,2458.15081,N,12111.40183,E,2.766,285.47,140919,,,A*6F
$GPVTG,285.47,T,,M,2.766,N,5.123,K,A*31
$GPGGA,112141.00,2458.15081,N,12111.40183,E,1,06,2.38,128.9,M,16.4,M,,*5E
$GPGSA,A,3,20,10,25,21,31,32,,,,,,,4.04,2.38,3.27*09
$GPGSV,3,1,10,10,56,325,28,12,43,096,29,14,12,287,18,15,22,080,*78
$GPGSV,3,2,10,20,86,260,25,21,27,213,33,24,38,035,20,25,40,156,32*79
$GPGSV,3,3,10,31,14,232,32,32,28,305,28*7A
$GPGLL,2458.15081,N,12111.40183,E,112141.00,A,A*65
$GPRMC,112142.00,A,2458.15090,N,12111.40106,E,2.660,282.28,140919,,,A*68
$GPVTG,282.28,T,,M,2.660,N,4.926,K,A*34
$GPGGA,112142.00,2458.15090,N,12111.40106,E,1,06,2.38,128.8,M,16.4,M,,*51
$GPGSA,A,3,20,10,25,21,31,32,,,,,,,4.04,2.38,3.27*09
$GPGSV,3,1,10,10,56,325,29,12,43,096,29,14,12,287,18,15,22,080,*79
$GPGSV,3,2,10,20,86,260,25,21,27,213,33,24,38,035,20,25,40,156,32*79
$GPGSV,3,3,10,31,14,232,26,32,28,305,27*70
$GPGLL,2458.15090,N,12111.40106,E,112142.00,A,A*6B
$GPRMC,112143.00,A,2458.15093,N,12111.40035,E,2.660,277.31,140919,,,A*69
$GPVTG,277.31,T,,M,2.660,N,4.926,K,A*36
$GPGGA,112143.00,2458.15093,N,12111.40035,E,1,06,2.38,128.6,M,16.4,M,,*5C
$GPGSA,A,3,20,10,25,21,31,32,,,,,,,4.04,2.38,3.27*09
$GPGSV,3,1,10,10,56,325,30,12,43,096,29,14,12,287,18,15,22,080,*71
$GPGSV,3,2,10,20,86,260,25,21,27,213,33,24,38,035,18,25,40,156,34*74
$GPGSV,3,3,10,31,14,232,27,32,28,305,27*71
$GPGLL,2458.15093,N,12111.40035,E,112143.00,A,A*68
$GPRMC,112144.00,A,2458.15083,N,12111.39947,E,2.705,270.75,140919,,,A*68
$GPVTG,270.75,T,,M,2.705,N,5.010,K,A*3E
$GPGGA,112144.00,2458.15083,N,12111.39947,E,1,06,2.38,128.9,M,16.4,M,,*57
$GPGSA,A,3,20,10,25,21,31,32,,,,,,,4.04,2.38,3.27*09
$GPGSV,3,1,10,10,56,325,33,12,43,096,32,14,12,287,18,15,22,080,*78
$GPGSV,3,2,10,20,86,260,26,21,27,213,32,24,38,035,16,25,40,156,31*7D
$GPGSV,3,3,10,31,14,232,27,32,28,305,25*73
$GPGLL,2458.15083,N,12111.39947,E,112144.00,A,A*6C
$GPRMC,112145.00,A,2458.15079,N,12111.39881,E,2.693,268.05,140919,,,A*67
$GPVTG,268.05,T,,M,2.693,N,4.987,K,A*38
$GPGGA,112145.00,2458.15079,N,12111.39881,E,1,06,2.38,128.6,M,16.4,M,,*57
$GPGSA,A,3,20,10,25,21,31,32,,,,,,,4.04,2.38,3.27*09
$GPGSV,3,1,10,10,56,325,28,12,43,096,31,14,12,287,16,15,22,080,*7F
$GPGSV,3,2,10,20,86,260,28,21,27,213,33,24,38,035,15,25,40,156,35*75
$GPGSV,3,3,10,31,14,232,27,32,28,305,23*75
$GPGLL,2458.15079,N,12111.39881,E,112145.00,A,A*63
$GPRMC,112146.00,A,2458.15074,N,12111.39812,E,2.586,266.46,140919,,,A*6D
$GPVTG,266.46,T,,M,2.586,N,4.788,K,A*37
$GPGGA,112146.00,2458.15074,N,12111.39812,E,1,06,2.38,128.5,M,16.4,M,,*50
$GPGSA,A,3,20,10,25,21,31,32,,,,,,,4.04,2.38,3.27*09
$GPGSV,3,1,10,10,56,325,25,12,43,096,31,14,12,287,13,15,22,080,*77
$GPGSV,3,2,10,20,86,260,28,21,27,213,31,24,38,035,15,25,40,156,33*71
$GPGSV,3,3,10,31,14,232,27,32,28,305,23*75
$GPGLL,2458.15074,N,12111.39812,E,112146.00,A,A*67
$GPRMC,112147.00,A,2458.15075,N,12111.39744,E,2.464,266.28,140919,,,A*64
$GPVTG,266.28,T,,M,2.464,N,4.564,K,A*32
$GPGGA,112147.00,2458.15075,N,12111.39744,E,1,06,2.38,128.4,M,16.4,M,,*5D
$GPGSA,A,3,20,10,25,21,31,32,,,,,,,4.04,2.38,3.27*09
$GPGSV,3,1,10,10,56,325,22,12,43,096,32,14,12,287,,15,22,080,*71
$GPGSV,3,2,10,20,86,260,27,21,27,213,29,24,38,035,15,25,40,156,31*75
$GPGSV,3,3,10,31,14,232,28,32,28,305,21*78
$GPGLL,2458.15075,N,12111.39744,E,112147.00,A,A*6B
$GPRMC,112148.00,A,2458.15049,N,12111.39670,E,2.430,261.66,140919,,,A*6E
$GPVTG,261.66,T,,M,2.430,N,4.500,K,A*3C
$GPGGA,112148.00,2458.15049,N,12111.39670,E,1,06,2.38,128.6,M,16.4,M,,*59
$GPGSA,A,3,20,10,25,21,31,32,,,,,,,4.04,2.38,3.27*09
$GPGSV,3,1,10,10,56,325,18,12,43,096,33,14,12,287,,15,22,080,*79
$GPGSV,3,2,10,20,86,260,26,21,27,213,27,24,38,035,16,25,40,156,31*79
$GPGSV,3,3,10,31,14,232,28,32,28,305,19*73
$GPGLL,2458.15049,N,12111.39670,E,112148.00,A,A*6D
$GPRMC,112149.00,A,2458.15048,N,12111.39588,E,2.622,263.01,140919,,,A*68
$GPVTG,263.01,T,,M,2.622,N,4.856,K,A*30
$GPGGA,112149.00,2458.15048,N,12111.39588,E,1,06,2.38,128.6,M,16.4,M,,*5D
$GPGSA,A,3,20,10,25,21,31,32,,,,,,,4.04,2.38,3.27*09
$GPGSV,3,1,10,10,56,325,20,12,43,096,34,14,12,287,,15,22,080,*75
$GPGSV,3,2,10,20,86,260,23,21,27,213,27,24,38,035,17,25,40,156,32*7E
$GPGSV,3,3,10,31,14,232,28,32,28,305,21*78
$GPGLL,2458.15048,N,12111.39588,E,112149.00,A,A*69
$GPRMC,112150.00,A,2458.15051,N,12111.39506,E,2.709,265.79,140919,,,A*6F
$GPVTG,265.79,T,,M,2.709,N,5.018,K,A*32
$GPGGA,112150.00,2458.15051,N,12111.39506,E,1,06,2.38,128.7,M,16.4,M,,*5A
$GPGSA,A,3,20,10,25,21,31,32,,,,,,,4.04,2.38,3.27*09
$GPGSV,3,1,10,10,56,325,21,12,43,096,36,14,12,287,,15,22,080,19*7E
$GPGSV,3,2,10,20,86,260,21,21,27,213,27,24,38,035,17,25,40,156,32*7C
$GPGSV,3,3,10,31,14,232,23,32,28,305,24*76
$GPGLL,2458.15051,N,12111.39506,E,112150.00,A,A*6F
$GPRMC,112151.00,A,2458.15060,N,12111.39422,E,2.701,269.54,140919,,,A*60
$GPVTG,269.54,T,,M,2.701,N,5.003,K,A*33
$GPGGA,112151.00,2458.15060,N,12111.39422,E,1,06,2.38,128.9,M,16.4,M,,*50
$GPGSA,A,3,20,10,25,21,31,32,,,,,,,4.04,2.38,3.27*09
$GPGSV,3,1,10,10,56,325,21,12,43,096,33,14,12,287,,15,22,080,17*75
$GPGSV,3,2,10,20,86,260,18,21,27,213,27,24,38,035,16,25,40,156,31*74
$GPGSV,3,3,10,31,14,232,25,32,28,305,25*71
$GPGLL,2458.15060,N,12111.39422,E,112151.00,A,A*6B
$GPRMC,112152.00,A,2458.15048,N,12111.39330,E,2.734,269.23,140919,,,A*6B
$GPVTG,269.23,T,,M,2.734,N,5.064,K,A*34
$GPGGA,112152.00,2458.15048,N,12111.39330,E,1,06,2.38,129.0,M,16.4,M,,*55
$GPGSA,A,3,20,10,25,21,31,32,,,,,,,4.04,2.38,3.27*09
$GPGSV,3,1,10,10,56,325,23,12,43,096,35,14,12,287,,15,22,080,16*70
$GPGSV,3,2,10,20,86,260,20,21,27,213,28,24,38,035,16,25,40,156,31*70
$GPGSV,3,3,10,31,14,232,27,32,28,305,27*71
$GPGLL,2458.15048,N,12111.39330,E,112152.00,A,A*66
$GPRMC,112153.00,A,2458.15041,N,12111.39240,E,2.783,267.86,140919,,,A*68
$GPVTG,267.86,T,,M,2.783,N,5.154,K,A*3B
$GPGGA,112153.00,2458.15041,N,12111.39240,E,1,06,2.38,129.2,M,16.4,M,,*59
$GPGSA,A,3,20,10,25,21,31,32,,,,,,,4.05,2.38,3.27*08
$GPGSV,3,1,10,10,56,325,31,12,43,096,35,14,12,287,,15,22,080,19*7C
$GPGSV,3,2,10,20,86,260,29,21,27,213,27,24,38,035,13,25,40,156,32*70
$GPGSV,3,3,10,31,14,232,29,32,28,305,28*70
$GPGLL,2458.15041,N,12111.39240,E,112153.00,A,A*68
$GPRMC,112154.00,A,2458.15035,N,12111.39162,E,2.669,265.24,140919,,,A*60
$GPVTG,265.24,T,,M,2.669,N,4.944,K,A*3C
$GPGGA,112154.00,2458.15035,N,12111.39162,E,1,06,2.38,129.1,M,16.4,M,,*5D
$GPGSA,A,3,20,10,25,21,31,32,,,,,,,4.05,2.38,3.27*08
$GPGSV,3,1,10,10,57,325,31,12,43,096,33,14,12,287,,15,22,080,19*7B
$GPGSV,3,2,10,20,86,260,29,21,27,213,26,24,38,035,12,25,40,156,32*70
$GPGSV,3,3,10,31,14,232,30,32,28,305,28*78
$GPGLL,2458.15035,N,12111.39162,E,112154.00,A,A*6F
$GPRMC,112155.00,A,2458.15023,N,12111.39068,E,2.861,263.29,140919,,,A*60
$GPVTG,263.29,T,,M,2.861,N,5.298,K,A*3A
$GPGGA,112155.00,2458.15023,N,12111.39068,E,1,06,2.38,129.1,M,16.4,M,,*50
$GPGSA,A,3,20,10,25,21,31,32,,,,,,,4.05,2.38,3.27*08
$GPGSV,3,1,10,10,57,325,31,12,43,096,35,14,12,287,,15,22,080,21*76
$GPGSV,3,2,10,20,86,260,28,21,27,213,27,24,38,035,13,25,40,156,31*72
$GPGSV,3,3,10,31,14,232,30,32,28,305,28*78
$GPGLL,2458.15023,N,12111.39068,E,112155.00,A,A*62
$GPRMC,112156.00,A,2458.15006,N,12111.38982,E,2.809,260.37,140919,,,A*6A
$GPVTG,260.37,T,,M,2.809,N,5.202,K,A*3B
$GPGGA,112156.00,2458.15006,N,12111.38982,E,1,06,2.38,129.1,M,16.4,M,,*58
$GPGSA,A,3,20,10,25,21,31,32,,,,,,,4.05,2.38,3.27*08
$GPGSV,3,1,10,10,57,325,31,12,43,095,35,14,12,287,,15,22,080,24*70
$GPGSV,3,2,10,20,86,260,28,21,27,213,27,24,38,035,13,25,40,156,31*72
$GPGSV,3,3,10,31,14,232,29,32,28,305,28*70
$GPGLL,2458.15006,N,12111.38982,E,112156.00,A,A*6A
$GPRMC,112157.00,A,2458.14980,N,12111.38910,E,2.708,252.23,140919,,,A*6C
$GPVTG,252.23,T,,M,2.708,N,5.016,K,A*36
$GPGGA,112157.00,2458.14980,N,12111.38910,E,1,06,2.38,129.0,M,16.4,M,,*55
$GPGSA,A,3,20,10,25,21,31,32,,,,,,,4.05,2.38,3.27*08
$GPGSV,3,1,10,10,57,325,34,12,43,095,35,14,12,287,,15,22,080,26*77
$GPGSV,3,2,10,20,86,260,28,21,27,213,26,24,38,035,14,25,40,156,32*77
$GPGSV,3,3,10,31,14,232,29,32,28,305,28*70
$GPGLL,2458.14980,N,12111.38910,E,112157.00,A,A*66
$GPRMC,112158.00,A,2458.14953,N,12111.38832,E,2.767,249.97,140919,,,A*60
$GPVTG,249.97,T,,M,2.767,N,5.125,K,A*3B
$GPGGA,112158.00,2458.14953,N,12111.38832,E,1,06,2.38,128.9,M,16.4,M,,*5D
$GPGSA,A,3,20,10,25,21,31,32,,,,,,,4.05,2.38,3.27*08
$GPGSV,3,1,10,10,57,325,30,12,43,095,37,14,12,288,,15,22,080,25*7D
$GPGSV,3,2,10,20,86,260,28,21,27,213,26,24,38,035,18,25,40,156,31*78
$GPGSV,3,3,10,31,14,232,30,32,28,305,29*79
$GPGLL,2458.14953,N,12111.38832,E,112158.00,A,A*66
$GPRMC,112159.00,A,2458.14924,N,12111.38750,E,2.749,249.13,140919,,,A*6A
$GPVTG,249.13,T,,M,2.749,N,5.091,K,A*35
$GPGGA,112159.00,2458.14924,N,12111.38750,E,1,06,2.38,128.9,M,16.4,M,,*57
$GPGSA,A,3,20,10,25,21,31,32,,,,,,,4.05,2.38,3.27*08
$GPGSV,3,1,10,10,57,325,30,12,43,095,36,14,12,288,,15,21,080,24*7E
$GPGSV,3,2,10,20,86,260,28,21,27,213,26,24,38,035,21,25,40,156,31*72
$GPGSV,3,3,10,31,14,232,30,32,28,305,20*70
$GPGLL,2458.14924,N,12111.38750,E,112159.00,A,A*6C
$GPRMC,112200.00,A,2458.14904,N,12111.38671,E,2.698,250.76,140919,,,A*63
$GPVTG,250.76,T,,M,2.698,N,4.996,K,A*3C
$GPGGA,112200.00,2458.14904,N,12111.38671,E,1,06,2.38,129.0,M,16.4,M,,*50
$GPGSA,A,3,20,10,25,21,31,32,,,,,,,4.05,2.38,3.27*08
$GPGSV,3,1,10,10,57,325,31,12,43,095,37,14,12,288,,15,21,080,25*7F
$GPGSV,3,2,10,20,86,260,28,21,27,213,26,24,38,035,22,25,40,156,31*71
$GPGSV,3,3,10,31,14,232,30,32,28,305,19*7A
$GPGLL,2458.14904,N,12111.38671,E,112200.00,A,A*63
$GPRMC,112201.00,A,2458.14888,N,12111.38623,E,2.184,250.64,140919,,,A*69
$GPVTG,250.64,T,,M,2.184,N,4.046,K,A*31
$GPGGA,112201.00,2458.14888,N,12111.38623,E,1,06,1.67,128.8,M,16.4,M,,*53
$GPGSA,A,3,20,10,25,21,31,12,,,,,,,3.20,1.67,2.73*03
$GPGSV,3,1,10,10,57,325,31,12,43,095,37,14,12,288,,15,21,080,27*7D
$GPGSV,3,2,10,20,86,260,28,21,27,213,26,24,38,035,22,25,40,156,31*71
$GPGSV,3,3,10,31,14,232,31,32,28,305,17*75
$GPGLL,2458.14888,N,12111.38623,E,112201.00,A,A*60
$GPRMC,112202.00,A,2458.14857,N,12111.38540,E,2.468,249.70,140919,,,A*64
$GPVTG,249.70,T,,M,2.468,N,4.570,K,A*3B
$GPGGA,112202.00,2458.14857,N,12111.38540,E,1,07,1.33,129.2,M,16.4,M,,*5F
$GPGSA,A,3,20,10,25,21,31,32,12,,,,,,2.63,1.33,2.27*04
$GPGSV,3,1,10,10,57,325,31,12,43,095,37,14,12,288,,15,21,080,27*7D
$GPGSV,3,2,10,20,86,260,28,21,27,213,26,24,38,035,23,25,40,156,30*71
$GPGSV,3,3,10,31,14,232,31,32,28,305,15*77
$GPGLL,2458.14857,N,12111.38540,E,112202.00,A,A*67
$GPRMC,112203.00,A,2458.14824,N,12111.38469,E,2.337,247.44,140919,,,A*6F
$GPVTG,247.44,T,,M,2.337,N,4.328,K,A*34
$GPGGA,112203.00,2458.14824,N,12111.38469,E,1,07,1.33,129.3,M,16.4,M,,*51
$GPGSA,A,3,20,10,25,21,31,32,12,,,,,,2.63,1.33,2.27*04
$GPGSV,3,1,10,10,57,325,32,12,43,095,37,14,12,288,,15,21,080,33*7B
$GPGSV,3,2,10,20,86,260,28,21,27,213,27,24,38,035,24,25,40,156,30*77
$GPGSV,3,3,10,31,14,232,31,32,28,305,14*76
$GPGLL,2458.14824,N,12111.38469,E,112203.00,A,A*68
$GPRMC,112204.00,A,2458.14789,N,12111.38398,E,2.477,245.36,140919,,,A*6D
$GPVTG,245.36,T,,M,2.477,N,4.587,K,A*33
$GPGGA,112204.00,2458.14789,N,12111.38398,E,1,06,1.67,129.2,M,16.4,M,,*56
$GPGSA,A,3,20,10,25,21,31,12,,,,,,,3.20,1.67,2.73*03
$GPGSV,3,1,10,10,57,325,31,12,43,095,36,14,12,288,,15,21,080,31*7B
$GPGSV,3,2,10,20,86,251,27,21,27,213,26,24,38,035,23,25,40,156,29*74
$GPGSV,3,3,10,31,14,232,31,32,28,305,10*72
$GPGLL,2458.14789,N,12111.38398,E,112204.00,A,A*6E
$GPRMC,112205.00,A,2458.14747,N,12111.38330,E,2.599,242.46,140919,,,A*6D
$GPVTG,242.46,T,,M,2.599,N,4.813,K,A*32
$GPGGA,112205.00,2458.14747,N,12111.38330,E,1,07,1.67,129.2,M,16.4,M,,*56
$GPGSA,A,3,20,10,25,21,31,32,12,,,,,,3.20,1.67,2.73*02
$GPGSV,3,1,10,10,57,325,31,12,43,095,37,14,12,288,,15,21,080,30*7B
$GPGSV,3,2,10,20,86,251,28,21,27,213,27,24,38,035,22,25,40,156,29*7B
$GPGSV,3,3,10,31,14,232,31,32,28,305,17*75
$GPGLL,2458.14747,N,12111.38330,E,112205.00,A,A*6F
$GPRMC,112206.00,A,2458.14689,N,12111.38262,E,2.705,235.97,140919,,,A*60
$GPVTG,235.97,T,,M,2.705,N,5.009,K,A*3B
$GPGGA,112206.00,2458.14689,N,12111.38262,E,1,07,1.67,129.3,M,16.4,M,,*51
$GPGSA,A,3,20,10,25,21,31,32,12,,,,,,3.20,1.67,2.72*03
$GPGSV,3,1,10,10,57,325,31,12,43,095,37,14,12,288,,15,21,080,31*7A
$GPGSV,3,2,10,20,86,251,28,21,27,213,26,24,38,035,22,25,40,156,30*72
$GPGSV,3,3,10,31,14,232,31,32,28,305,16*74
$GPGLL,2458.14689,N,12111.38262,E,112206.00,A,A*69
$GPRMC,112207.00,A,2458.14634,N,12111.38192,E,2.748,233.58,140919,,,A*67
$GPVTG,233.58,T,,M,2.748,N,5.089,K,A*3F
$GPGGA,112207.00,2458.14634,N,12111.38192,E,1,07,1.67,129.4,M,16.4,M,,*5D
$GPGSA,A,3,20,10,25,21,31,32,12,,,,,,3.20,1.67,2.72*03
$GPGSV,3,1,10,10,57,325,31,12,43,095,37,14,12,288,,15,21,080,31*7A
$GPGSV,3,2,10,20,86,251,28,21,27,213,27,24,38,035,21,25,40,156,30*70
$GPGSV,3,3,10,31,14,232,31,32,28,305,15*77
$GPGLL,2458.14634,N,12111.38192,E,112207.00,A,A*62
$GPRMC,112208.00,A,2458.14572,N,12111.38116,E,2.967,231.74,140919,,,A*6A
$GPVTG,231.74,T,,M,2.967,N,5.495,K,A*39
$GPGGA,112208.00,2458.14572,N,12111.38116,E,1,07,1.67,129.6,M,16.4,M,,*5D
$GPGSA,A,3,20,10,25,21,31,32,12,,,,,,3.20,1.67,2.72*03
$GPGSV,3,1,10,10,57,325,30,12,43,095,34,14,12,288,,15,21,080,30*79
$GPGSV,3,2,10,20,86,251,28,21,27,213,26,24,38,035,21,25,40,156,30*71
$GPGSV,3,3,10,31,14,232,30,32,28,305,15*76
$GPGLL,2458.14572,N,12111.38116,E,112208.00,A,A*60
$GPRMC,112209.00,A,2458.14514,N,12111.38044,E,2.916,231.10,140919,,,A*69
$GPVTG,231.10,T,,M,2.916,N,5.401,K,A*30
$GPGGA,112209.00,2458.14514,N,12111.38044,E,1,07,1.33,129.8,M,16.4,M,,*55
$GPGSA,A,3,20,10,25,21,31,32,12,,,,,,2.63,1.33,2.27*04
$GPGSV,3,1,10,10,57,325,31,12,43,095,37,14,12,288,,15,21,080,31*7A
$GPGSV,3,2,10,20,86,251,28,21,27,213,26,24,38,035,21,25,40,156,30*71
$GPGSV,3,3,10,31,14,232,30,32,28,305,15*76
$GPGLL,2458.14514,N,12111.38044,E,112209.00,A,A*67
$GPRMC,112210.00,A,2458.14450,N,12111.37984,E,2.793,227.87,140919,,,A*60
$GPVTG,227.87,T,,M,2.793,N,5.173,K,A*3A
$GPGGA,112210.00,2458.14450,N,12111.37984,E,1,07,1.33,129.7,M,16.4,M,,*59
$GPGSA,A,3,20,10,25,21,31,32,12,,,,,,2.63,1.33,2.27*04
$GPGSV,3,1,10,10,57,325,30,12,43,095,36,14,12,288,,15,21,080,31*7A
$GPGSV,3,2,10,20,86,251,28,21,27,213,27,24,38,035,24,25,40,156,30*75
$GPGSV,3,3,10,31,14,232,31,32,28,305,18*7A
$GPGLL,2458.14450,N,12111.37984,E,112210.00,A,A*64
$GPRMC,112211.00,A,2458.14389,N,12111.37914,E,3.009,227.34,140919,,,A*66
$GPVTG,227.34,T,,M,3.009,N,5.573,K,A*33
$GPGGA,112211.00,2458.14389,N,12111.37914,E,1,07,1.33,129.7,M,16.4,M,,*52
$GPGSA,A,3,20,10,25,21,31,32,12,,,,,,2.63,1.33,2.27*04
$GPGSV,3,1,10,10,57,325,30,12,43,095,36,14,12,288,,15,21,080,31*7A
$GPGSV,3,2,10,20,86,251,28,21,27,213,28,24,38,035,26,25,40,156,30*78
$GPGSV,3,3,10,31,14,232,31,32,28,305,20*71
$GPGLL,2458.14389,N,12111.37914,E,112211.00,A,A*6F
$GPRMC,112212.00,A,2458.14322,N,12111.37849,E,2.891,224.86,140919,,,A*6F
$GPVTG,224.86,T,,M,2.891,N,5.354,K,A*32
$GPGGA,112212.00,2458.14322,N,12111.37849,E,1,07,1.33,129.8,M,16.4,M,,*56
$GPGSA,A,3,20,10,25,21,31,32,12,,,,,,2.63,1.33,2.27*04
$GPGSV,3,1,10,10,57,325,30,12,43,095,36,14,12,288,,15,21,080,31*7A
$GPGSV,3,2,10,20,86,251,28,21,27,213,27,24,38,035,25,25,40,156,30*74
$GPGSV,3,3,10,31,14,232,29,32,28,305,23*7B
$GPGLL,2458.14322,N,12111.37849,E,112212.00,A,A*64
$GPRMC,112213.00,A,2458.14263,N,12111.37789,E,2.677,223.38,140919,,,A*6D
$GPVTG,223.38,T,,M,2.677,N,4.957,K,A*3E
$GPGGA,112213.00,2458.14263,N,12111.37789,E,1,07,1.33,130.0,M,16.4,M,,*50
$GPGSA,A,3,20,10,25,21,31,32,12,,,,,,2.63,1.33,2.27*04
$GPGSV,3,1,10,10,57,325,30,12,43,095,36,14,12,288,,15,21,080,31*7A
$GPGSV,3,2,10,20,86,250,28,21,27,213,27,24,38,035,25,25,40,156,29*7D
$GPGSV,3,3,10,31,14,232,29,32,28,305,24*7C
$GPGLL,2458.14263,N,12111.37789,E,112213.00,A,A*62
$GPRMC,112214.00,A,2458.14202,N,12111.37738,E,2.486,220.85,140919,,,A*6E
$GPVTG,220.85,T,,M,2.486,N,4.605,K,A*3F
$GPGGA,112214.00,2458.14202,N,12111.37738,E,1,07,1.33,130.1,M,16.4,M,,*5B
$GPGSA,A,3,20,10,25,21,31,32,12,,,,,,2.63,1.33,2.27*04
$GPGSV,3,1,10,10,57,325,29,12,43,095,36,14,12,288,,15,21,080,30*73
$GPGSV,3,2,10,20,86,250,28,21,27,213,26,24,38,035,26,25,40,156,29*7F
$GPGSV,3,3,10,31,14,232,29,32,28,305,22*7A
$GPGLL,2458.14202,N,12111.37738,E,112214.00,A,A*68
$GPRMC,112215.00,A,2458.14151,N,12111.37676,E,2.614,222.05,140919,,,A*62
$GPVTG,222.05,T,,M,2.614,N,4.841,K,A*32
$GPGGA,112215.00,2458.14151,N,12111.37676,E,1,07,1.33,130.1,M,16.4,M,,*54
$GPGSA,A,3,20,10,25,21,31,32,12,,,,,,2.63,1.33,2.27*04
$GPGSV,3,1,10,10,57,325,29,12,43,095,36,14,12,288,,15,21,080,31*72
$GPGSV,3,2,10,20,86,250,28,21,27,213,28,24,38,035,28,25,40,156,29*7F
$GPGSV,3,3,10,31,15,233,30,32,28,305,18*7B
$GPGLL,2458.14151,N,12111.37676,E,112215.00,A,A*67
$GPRMC,112216.00,A,2458.14091,N,12111.37619,E,2.571,221.25,140919,,,A*64
$GPVTG,221.25,T,,M,2.571,N,4.762,K,A*3D
$GPGGA,112216.00,2458.14091,N,12111.37619,E,1,07,1.33,130.3,M,16.4,M,,*51
$GPGSA,A,3,20,10,25,21,31,32,12,,,,,,2.63,1.33,2.27*04
$GPGSV,3,1,10,10,57,325,29,12,43,095,37,14,12,288,,15,21,080,31*73
$GPGSV,3,2,10,20,86,250,28,21,27,213,28,24,38,035,29,25,40,156,30*76
$GPGSV,3,3,10,31,15,233,30,32,28,305,17*74
$GPGLL,2458.14091,N,12111.37619,E,112216.00,A,A*60
$GPRMC,112217.00,A,2458.14033,N,12111.37569,E,2.487,219.37,140919,,,A*69
$GPVTG,219.37,T,,M,2.487,N,4.606,K,A*3E
$GPGGA,112217.00,2458.14033,N,12111.37569,E,1,07,1.33,130.2,M,16.4,M,,*5D
$GPGSA,A,3,20,10,25,21,31,32,12,,,,,,2.63,1.33,2.27*04
$GPGSV,3,1,10,10,57,325,29,12,43,095,36,14,12,288,,15,21,080,31*72
$GPGSV,3,2,10,20,86,250,28,21,27,213,28,24,38,035,33,25,40,156,29*75
$GPGSV,3,3,10,31,15,233,30,32,28,305,15*76
$GPGLL,2458.14033,N,12111.37569,E,112217.00,A,A*6D
$GPRMC,112218.00,A,2458.13963,N,12111.37521,E,2.613,217.24,140919,,,A*62
$GPVTG,217.24,T,,M,2.613,N,4.838,K,A*3E
$GPGGA,112218.00,2458.13963,N,12111.37521,E,1,06,1.67,130.4,M,16.4,M,,*53
$GPGSA,A,3,20,10,25,21,31,12,,,,,,,3.19,1.67,2.72*08
$GPGSV,3,1,10,10,57,325,29,12,43,095,37,14,12,288,,15,21,080,32*70
$GPGSV,3,2,10,20,86,250,28,21,27,213,28,24,38,035,31,25,40,156,30*7F
$GPGSV,3,3,10,31,15,233,31,32,28,305,15*77
$GPGLL,2458.13963,N,12111.37521,E,112218.00,A,A*65
$GPRMC,112219.00,A,2458.13887,N,12111.37470,E,2.776,215.69,140919,,,A*64
$GPVTG,215.69,T,,M,2.776,N,5.142,K,A*32
$GPGGA,112219.00,2458.13887,N,12111.37470,E,1,06,1.67,130.4,M,16.4,M,,*5C
$GPGSA,A,3,20,10,25,21,31,12,,,,,,,3.19,1.67,2.72*08
$GPGSV,3,1,10,10,57,325,29,12,43,095,36,14,12,288,,15,21,080,31*72
$GPGSV,3,2,10,20,86,250,28,21,27,213,28,24,38,035,30,25,40,156,29*76
$GPGSV,3,3,10,31,15,233,32,32,28,305,15*74
$GPGLL,2458.13887,N,12111.37470,E,112219.00,A,A*6A
$GPRMC,112220.00,A,2458.13815,N,12111.37417,E,2.856,215.63,140919,,,A*63
$GPVTG,215.63,T,,M,2.856,N,5.289,K,A*31
$GPGGA,112220.00,2458.13815,N,12111.37417,E,1,06,1.67,130.4,M,16.4,M,,*5C
$GPGSA,A,3,20,10,25,21,31,12,,,,,,,3.19,1.67,2.72*08
$GPGSV,3,1,10,10,57,325,28,12,43,095,36,14,12,288,,15,21,080,32*70
$GPGSV,3,2,10,20,86,250,28,21,27,213,28,24,38,035,30,25,40,156,28*77
$GPGSV,3,3,10,31,15,233,32,32,28,305,16*77
$GPGLL,2458.13815,N,12111.37417,E,112220.00,A,A*6A
$GPRMC,112221.00,A,2458.13741,N,12111.37368,E,2.782,214.04,140919,,,A*65
$GPVTG,214.04,T,,M,2.782,N,5.152,K,A*32
$GPGGA,112221.00,2458.13741,N,12111.37368,E,1,07,1.33,130.4,M,16.4,M,,*5C
$GPGSA,A,3,20,10,25,21,31,32,12,,,,,,2.63,1.33,2.27*04
$GPGSV,3,1,10,10,57,325,29,12,43,095,37,14,12,288,,15,21,080,33*71
$GPGSV,3,2,10,20,86,250,28,21,27,213,28,24,38,035,31,25,40,156,29*77
$GPGSV,3,3,10,31,15,233,32,32,28,305,17*76
$GPGLL,2458.13741,N,12111.37368,E,112221.00,A,A*6A
$GPRMC,112222.00,A,2458.13662,N,12111.37332,E,2.701,209.44,140919,,,A*6A
$GPVTG,209.44,T,,M,2.701,N,5.003,K,A*34
$GPGGA,112222.00,2458.13662,N,12111.37332,E,1,07,1.33,130.6,M,16.4,M,,*52
$GPGSA,A,3,20,10,25,21,31,32,12,,,,,,2.63,1.33,2.27*04
$GPGSV,3,1,10,10,57,325,29,12,43,095,36,14,12,288,,15,21,080,32*71
$GPGSV,3,2,10,20,86,250,27,21,27,213,29,24,38,035,31,25,40,156,29*79
$GPGSV,3,3,10,31,15,233,31,32,28,305,16*74
$GPGLL,2458.13662,N,12111.37332,E,112222.00,A,A*66
$GPRMC,112223.00,A,2458.13574,N,12111.37299,E,2.860,204.38,140919,,,A*61
$GPVTG,204.38,T,,M,2.860,N,5.297,K,A*35
$GPGGA,112223.00,2458.13574,N,12111.37299,E,1,07,1.33,130.9,M,16.4,M,,*58
$GPGSA,A,3,20,10,25,21,31,32,12,,,,,,2.63,1.33,2.27*04
$GPGSV,3,1,10,10,57,325,28,12,43,095,36,14,12,288,,15,21,080,30*72
$GPGSV,3,2,10,20,86,250,27,21,27,213,29,24,38,035,30,25,40,156,29*78
$GPGSV,3,3,10,31,15,233,29,32,28,305,15*7E
$GPGLL,2458.13574,N,12111.37299,E,112223.00,A,A*63
$GPRMC,112224.00,A,2458.13500,N,12111.37283,E,2.467,197.41,140919,,,A*62
$GPVTG,197.41,T,,M,2.467,N,4.570,K,A*36
$GPGGA,112224.00,2458.13500,N,12111.37283,E,1,07,1.33,131.4,M,16.4,M,,*5B
$GPGSA,A,3,20,10,25,21,31,32,12,,,,,,2.63,1.33,2.27*04
$GPGSV,3,1,10,10,57,325,28,12,43,095,36,14,12,288,,15,21,080,30*72
$GPGSV,3,2,10,20,86,250,26,21,27,213,30,24,38,035,29,25,40,156,29*79
$GPGSV,3,3,10,31,15,233,27,32,28,305,16*73
$GPGLL,2458.13500,N,12111.37283,E,112224.00,A,A*6C
$GPRMC,112225.00,A,2458.13425,N,12111.37263,E,2.601,195.50,140919,,,A*6B
$GPVTG,195.50,T,,M,2.601,N,4.817,K,A*3A
$GPGGA,112225.00,2458.13425,N,12111.37263,E,1,07,1.33,131.5,M,16.4,M,,*53
$GPGSA,A,3,20,10,25,21,31,32,12,,,,,,2.63,1.33,2.27*04
$GPGSV,3,1,10,10,57,325,27,12,43,095,36,14,12,288,,15,21,080,30*7D
$GPGSV,3,2,10,20,86,250,27,21,27,213,28,24,38,035,30,25,40,156,29*79
$GPGSV,3,3,10,31,15,233,25,32,28,305,18*7F
$GPGLL,2458.13425,N,12111.37263,E,112225.00,A,A*65
$GPRMC,112226.00,A,2458.13359,N,12111.37238,E,2.449,195.53,140919,,,A*67
$GPVTG,195.53,T,,M,2.449,N,4.536,K,A*39
$GPGGA,112226.00,2458.13359,N,12111.37238,E,1,07,1.33,131.7,M,16.4,M,,*50
$GPGSA,A,3,20,10,25,21,31,32,12,,,,,,2.63,1.33,2.27*04
$GPGSV,3,1,10,10,57,325,28,12,43,095,36,14,12,288,,15,21,080,31*73
$GPGSV,3,2,10,20,86,250,28,21,27,213,28,24,38,035,30,25,40,156,29*76
$GPGSV,3,3,10,31,15,233,25,32,28,305,18*7F
$GPGLL,2458.13359,N,12111.37238,E,112226.00,A,A*64
$GPRMC,112227.00,A,2458.13289,N,12111.37222,E,2.388,193.83,140919,,,A*60
$GPVTG,193.83,T,,M,2.388,N,4.423,K,A*3D
$GPGGA,112227.00,2458.13289,N,12111.37222,E,1,07,1.33,131.9,M,16.4,M,,*58
$GPGSA,A,3,20,10,25,21,31,32,12,,,,,,2.63,1.33,2.27*04
$GPGSV,3,1,10,10,57,325,28,12,43,095,36,14,12,288,22,15,21,080,31*73
$GPGSV,3,2,10,20,86,250,28,21,27,213,27,24,38,035,31,25,40,156,29*78
$GPGSV,3,3,10,31,15,233,25,32,28,305,18*7F
$GPGLL,2458.13289,N,12111.37222,E,112227.00,A,A*62
$GPRMC,112228.00,A,2458.13220,N,12111.37205,E,2.407,193.24,140919,,,A*64
$GPVTG,193.24,T,,M,2.407,N,4.458,K,A*3C
$GPGGA,112228.00,2458.13220,N,12111.37205,E,1,07,1.33,132.0,M,16.4,M,,*5B
$GPGSA,A,3,20,10,25,21,31,32,12,,,,,,2.63,1.33,2.27*04
$GPGSV,3,1,10,10,57,325,28,12,43,095,37,14,12,288,20,15,21,080,31*70
$GPGSV,3,2,10,20,86,250,28,21,27,213,27,24,38,035,32,25,40,156,29*7B
$GPGSV,3,3,10,31,15,233,23,32,28,305,19*78
$GPGLL,2458.13220,N,12111.37205,E,112228.00,A,A*6B
$GPRMC,112229.00,A,2458.13152,N,12111.37177,E,2.558,197.32,140919,,,A*6D
$GPVTG,197.32,T,,M,2.558,N,4.737,K,A*3E
$GPGGA,112229.00,2458.13152,N,12111.37177,E,1,07,1.33,131.9,M,16.4,M,,*50
$GPGSA,A,3,20,10,25,21,31,32,12,,,,,,2.63,1.33,2.27*04
$GPGSV,3,1,10,10,57,325,28,12,43,095,37,14,12,288,19,15,21,080,31*7A
$GPGSV,3,2,10,20,86,250,27,21,27,213,27,24,38,035,32,25,40,156,29*74
$GPGSV,3,3,10,31,15,233,21,32,28,305,21*71
$GPGLL,2458.13152,N,12111.37177,E,112229.00,A,A*6A
$GPRMC,112230.00,A,2458.13089,N,12111.37141,E,2.586,201.94,140919,,,A*64
$GPVTG,201.94,T,,M,2.586,N,4.790,K,A*30
$GPGGA,112230.00,2458.13089,N,12111.37141,E,1,07,1.33,131.8,M,16.4,M,,*5B
$GPGSA,A,3,20,10,25,21,31,32,12,,,,,,2.63,1.33,2.27*04
$GPGSV,3,1,10,10,57,325,29,12,43,095,37,14,12,288,17,15,21,080,31*75
$GPGSV,3,2,10,20,86,250,27,21,27,213,26,24,38,035,33,25,40,156,29*74
$GPGSV,3,3,10,31,15,233,17,32,28,305,22*77
$GPGLL,2458.13089,N,12111.37141,E,112230.00,A,A*60
$GPRMC,112231.00,A,2458.13046,N,12111.37119,E,1.926,202.15,140919,,,A*64
$GPVTG,202.15,T,,M,1.926,N,3.566,K,A*33
$GPGGA,112231.00,2458.13046,N,12111.37119,E,1,09,0.91,131.6,M,16.4,M,,*5D
$GPGSA,A,3,20,10,25,21,31,32,15,24,12,,,,1.82,0.91,1.58*08
$GPGSV,3,1,10,10,57,325,29,12,43,095,38,14,12,288,17,15,21,081,32*78
$GPGSV,3,2,10,20,86,250,28,21,27,213,27,24,38,035,33,25,40,156,29*7A
$GPGSV,3,3,10,31,15,233,18,32,28,305,23*79
$GPGLL,2458.13046,N,12111.37119,E,112231.00,A,A*6F
$GPRMC,112232.00,A,2458.12961,N,12111.37090,E,2.554,199.83,140919,,,A*6E
$GPVTG,199.83,T,,M,2.554,N,4.729,K,A*39
$GPGGA,112232.00,2458.12961,N,12111.37090,E,1,09,0.91,131.7,M,16.4,M,,*52
$GPGSA,A,3,20,10,25,21,31,32,15,24,12,,,,1.82,0.91,1.58*08
$GPGSV,3,1,10,10,57,325,29,12,43,095,38,14,12,288,16,15,21,081,33*78
$GPGSV,3,2,10,20,86,250,28,21,27,213,27,24,38,035,33,25,40,156,29*7A
$GPGSV,3,3,10,31,15,233,19,32,28,305,21*7A
$GPGLL,2458.12961,N,12111.37090,E,112232.00,A,A*61
$GPRMC,112233.00,A,2458.12889,N,12111.37082,E,2.335,194.14,140919,,,A*69
$GPVTG,194.14,T,,M,2.335,N,4.325,K,A*33
$GPGGA,112233.00,2458.12889,N,12111.37082,E,1,09,0.91,132.0,M,16.4,M,,*53
$GPGSA,A,3,20,10,25,21,31,32,15,24,12,,,,1.82,0.91,1.58*08
$GPGSV,3,1,10,10,57,325,29,12,43,095,37,14,12,288,15,15,21,081,32*75
$GPGSV,3,2,10,20,86,250,28,21,27,213,27,24,38,035,33,25,40,156,29*7A
$GPGSV,3,3,10,31,15,233,20,32,28,305,21*70
$GPGLL,2458.12889,N,12111.37082,E,112233.00,A,A*64
$GPRMC,112234.00,A,2458.12811,N,12111.37065,E,2.561,192.44,140919,,,A*62
$GPVTG,192.44,T,,M,2.561,N,4.744,K,A*34
$GPGGA,112234.00,2458.12811,N,12111.37065,E,1,09,0.91,132.2,M,16.4,M,,*5E
$GPGSA,A,3,20,10,25,21,31,32,15,24,12,,,,1.82,0.91,1.58*08
$GPGSV,3,1,10,10,57,325,29,12,43,095,36,14,12,288,13,15,21,081,32*72
$GPGSV,3,2,10,20,86,250,29,21,27,213,28,24,38,035,33,25,40,156,29*74
$GPGSV,3,3,10,31,15,233,21,32,28,305,19*7A
$GPGLL,2458.12811,N,12111.37065,E,112234.00,A,A*6B
$GPRMC,112235.00,A,2458.12735,N,12111.37052,E,2.638,190.17,140919,,,A*65
$GPVTG,190.17,T,,M,2.638,N,4.885,K,A*3D
$GPGGA,112235.00,2458.12735,N,12111.37052,E,1,09,0.91,132.2,M,16.4,M,,*52
$GPGSA,A,3,20,10,25,21,31,32,15,24,12,,,,1.82,0.91,1.58*08
$GPGSV,3,1,10,10,57,325,29,12,43,095,37,14,12,288,12,15,21,081,32*72
$GPGSV,3,2,10,20,86,250,28,21,27,213,29,24,38,035,32,25,40,156,29*75
$GPGSV,3,3,10,31,15,233,21,32,28,305,18*7B
$GPGLL,2458.12735,N,12111.37052,E,112235.00,A,A*67
$GPRMC,112236.00,A,2458.12662,N,12111.37059,E,2.470,183.31,140919,,,A*66
$GPVTG,183.31,T,,M,2.470,N,4.574,K,A*36
$GPGGA,112236.00,2458.12662,N,12111.37059,E,1,09,0.91,132.2,M,16.4,M,,*59
$GPGSA,A,3,20,10,25,21,31,32,15,24,12,,,,1.82,0.91,1.58*08
$GPGSV,3,1,10,10,57,325,29,12,43,095,36,14,12,288,09,15,21,081,31*7A
$GPGSV,3,2,10,20,86,250,28,21,27,213,29,24,38,035,32,25,40,156,30*7D
$GPGSV,3,3,10,31,15,233,22,32,28,305,18*78
$GPGLL,2458.12662,N,12111.37059,E,112236.00,A,A*6C
$GPRMC,112237.00,A,2458.12593,N,12111.37060,E,2.397,179.79,140919,,,A*67
$GPVTG,179.79,T,,M,2.397,N,4.439,K,A*39
$GPGGA,112237.00,2458.12593,N,12111.37060,E,1,09,0.91,132.2,M,16.4,M,,*5F
$GPGSA,A,3,20,10,25,21,31,32,15,24,12,,,,1.82,0.91,1.58*08
$GPGSV,3,1,10,10,57,325,28,12,43,095,35,14,12,288,,15,21,081,30*70
$GPGSV,3,2,10,20,86,250,28,21,27,213,28,24,38,035,32,25,40,156,28*75
$GPGSV,3,3,10,31,15,233,21,32,28,305,16*75
$GPGLL,2458.12593,N,12111.37060,E,112237.00,A,A*6A
$GPRMC,112238.00,A,2458.12521,N,12111.37054,E,2.487,181.34,140919,,,A*6E
$GPVTG,181.34,T,,M,2.487,N,4.605,K,A*3C
$GPGGA,112238.00,2458.12521,N,12111.37054,E,1,09,0.91,132.2,M,16.4,M,,*5E
$GPGSA,A,3,20,10,25,21,31,32,15,24,12,,,,1.82,0.91,1.58*08
$GPGSV,3,1,10,10,57,325,29,12,43,095,35,14,12,288,,15,21,081,31*70
$GPGSV,3,2,10,20,86,250,28,21,27,213,28,24,38,035,32,25,40,156,28*75
$GPGSV,3,3,10,31,15,233,21,32,28,305,16*75
$GPGLL,2458.12521,N,12111.37054,E,112238.00,A,A*6B
$GPRMC,112239.00,A,2458.12445,N,12111.37035,E,2.732,187.07,140919,,,A*60
$GPVTG,187.07,T,,M,2.732,N,5.059,K,A*39
$GPGGA,112239.00,2458.12445,N,12111.37035,E,1,09,0.91,131.8,M,16.4,M,,*52
$GPGSA,A,3,20,10,25,21,31,32,15,24,12,,,,1.82,0.91,1.58*08
$GPGSV,3,1,10,10,57,325,29,12,43,095,35,14,12,288,,15,21,081,30*71
$GPGSV,3,2,10,20,86,250,28,21,27,213,28,24,38,035,32,25,40,156,27*7A
$GPGSV,3,3,10,31,15,233,18,32,28,305,16*7F
$GPGLL,2458.12445,N,12111.37035,E,112239.00,A,A*6E
$GPRMC,112240.00,A,2458.12371,N,12111.37028,E,2.589,186.51,140919,,,A*62
$GPVTG,186.51,T,,M,2.589,N,4.794,K,A*3E
$GPGGA,112240.00,2458.12371,N,12111.37028,E,1,09,0.91,131.8,M,16.4,M,,*50
$GPGSA,A,3,20,10,25,21,31,32,15,24,12,,,,1.82,0.91,1.58*08
$GPGSV,3,1,10,10,57,325,29,12,43,095,35,14,12,288,,15,21,081,31*70
$GPGSV,3,2,10,20,86,250,27,21,27,213,26,24,38,035,32,25,40,156,27*7B
$GPGSV,3,3,10,31,15,233,16,32,28,305,17*70
$GPGLL,2458.12371,N,12111.37028,E,112240.00,A,A*6C
$GPRMC,112241.00,A,2458.12297,N,12111.37012,E,2.660,188.10,140919,,,A*6C
$GPVTG,188.10,T,,M,2.660,N,4.926,K,A*36
$GPGGA,112241.00,2458.12297,N,12111.37012,E,1,09,0.91,131.5,M,16.4,M,,*5C
$GPGSA,A,3,20,10,25,21,31,32,15,24,12,,,,1.82,0.91,1.58*08
$GPGSV,3,1,10,10,57,325,28,12,43,095,36,14,12,288,,15,21,081,31*72
$GPGSV,3,2,10,20,86,250,27,21,27,213,25,24,38,035,32,25,40,156,28*77
$GPGSV,3,3,10,31,15,233,17,32,28,305,19*7F
$GPGLL,2458.12297,N,12111.37012,E,112241.00,A,A*6D
$GPRMC,112242.00,A,2458.12223,N,12111.37004,E,2.649,187.19,140919,,,A*6A
$GPVTG,187.19,T,,M,2.649,N,4.906,K,A*39
$GPGGA,112242.00,2458.12223,N,12111.37004,E,1,09,0.91,131.2,M,16.4,M,,*50
$GPGSA,A,3,20,10,25,21,31,32,15,24,12,,,,1.82,0.91,1.58*08
$GPGSV,3,1,10,10,57,325,29,12,43,095,35,14,12,288,,15,21,081,32*73
$GPGSV,3,2,10,20,86,250,27,21,27,213,26,24,38,035,32,25,40,156,28*74
$GPGSV,3,3,10,31,15,233,17,32,28,305,18*7E
$GPGLL,2458.12223,N,12111.37004,E,112242.00,A,A*66
$GPRMC,112243.00,A,2458.12144,N,12111.36991,E,2.817,187.26,140919,,,A*64
$GPVTG,187.26,T,,M,2.817,N,5.216,K,A*3B
$GPGGA,112243.00,2458.12144,N,12111.36991,E,1,09,0.91,131.1,M,16.4,M,,*54
$GPGSA,A,3,20,10,25,21,31,32,15,24,12,,,,1.82,0.91,1.58*08
$GPGSV,3,1,10,10,57,325,29,12,43,095,36,14,12,288,,15,21,081,31*73
$GPGSV,3,2,10,20,86,250,28,21,27,213,25,24,38,035,32,25,40,156,28*78
$GPGSV,3,3,10,31,15,233,16,32,28,305,18*7F
$GPGLL,2458.12144,N,12111.36991,E,112243.00,A,A*61
$GPRMC,112244.00,A,2458.12061,N,12111.36985,E,2.987,185.79,140919,,,A*60
$GPVTG,185.79,T,,M,2.987,N,5.532,K,A*3A
$GPGGA,112244.00,2458.12061,N,12111.36985,E,1,09,0.91,130.8,M,16.4,M,,*58
$GPGSA,A,3,20,10,25,21,31,32,15,24,12,,,,1.82,0.91,1.58*08
$GPGSV,3,1,10,10,57,325,29,12,43,095,36,14,12,288,,15,21,081,32*70
$GPGSV,3,2,10,20,86,250,28,21,27,213,26,24,38,035,33,25,40,156,28*7A
$GPGSV,3,3,10,31,15,233,16,32,28,305,18*7F
$GPGLL,2458.12061,N,12111.36985,E,112244.00,A,A*65
$GPRMC,112245.00,A,2458.11982,N,12111.36980,E,2.834,184.12,140919,,,A*66
$GPVTG,184.12,T,,M,2.834,N,5.248,K,A*35
$GPGGA,112245.00,2458.11982,N,12111.36980,E,1,09,0.91,130.7,M,16.4,M,,*54
$GPGSA,A,3,20,10,25,21,31,32,15,24,12,,,,1.82,0.91,1.58*08
$GPGSV,3,1,10,10,57,325,29,12,43,095,36,14,12,288,,15,21,081,32*70
$GPGSV,3,2,10,20,86,250,28,21,27,213,26,24,38,035,32,25,40,156,28*7B
$GPGSV,3,3,10,31,15,233,17,32,28,305,19*7F
$GPGLL,2458.11982,N,12111.36980,E,112245.00,A,A*66
$GPRMC,112246.00,A,2458.11908,N,12111.36963,E,2.693,186.28,140919,,,A*62
$GPVTG,186.28,T,,M,2.693,N,4.987,K,A*34
$GPGGA,112246.00,2458.11908,N,12111.36963,E,1,09,0.91,130.5,M,16.4,M,,*5A
$GPGSA,A,3,20,10,25,21,31,32,15,24,12,,,,1.82,0.91,1.58*08
$GPGSV,3,1,10,10,57,325,29,12,43,095,36,14,12,288,,15,21,081,31*73
$GPGSV,3,2,10,20,86,250,28,21,27,213,27,24,38,035,32,25,40,156,28*7A
$GPGSV,3,3,10,31,15,233,19,32,28,305,19*71
$GPGLL,2458.11908,N,12111.36963,E,112246.00,A,A*6A
$GPRMC,112247.00,A,2458.11843,N,12111.36956,E,2.393,185.35,140919,,,A*61
$GPVTG,185.35,T,,M,2.393,N,4.432,K,A*3D
$GPGGA,112247.00,2458.11843,N,12111.36956,E,1,09,0.91,130.3,M,16.4,M,,*55
$GPGSA,A,3,20,10,25,21,31,32,15,24,12,,,,1.82,0.91,1.58*08
$GPGSV,3,1,10,10,57,325,29,12,43,095,36,14,12,288,,15,21,081,33*71
$GPGSV,3,2,10,20,86,250,28,21,27,213,28,24,38,035,32,25,40,156,28*75
$GPGSV,3,3,10,31,15,233,18,32,28,305,18*71
$GPGLL,2458.11843,N,12111.36956,E,112247.00,A,A*63
$GPRMC,112248.00,A,2458.11778,N,12111.36943,E,2.347,186.20,140919,,,A*63
$GPVTG,186.20,T,,M,2.347,N,4.346,K,A*37
$GPGGA,112248.00,2458.11778,N,12111.36943,E,1,09,0.91,130.2,M,16.4,M,,*58
$GPGSA,A,3,20,10,25,21,31,32,15,24,12,,,,1.82,0.91,1.58*08
$GPGSV,3,1,10,10,57,325,29,12,43,095,36,14,12,288,,15,21,081,32*70
$GPGSV,3,2,10,20,86,250,28,21,27,213,27,24,38,035,32,25,40,156,28*7A
$GPGSV,3,3,10,31,15,233,18,32,28,305,18*71
$GPGLL,2458.11778,N,12111.36943,E,112248.00,A,A*6F
$GPRMC,112249.00,A,2458.11714,N,12111.36921,E,2.337,189.96,140919,,,A*69
$GPVTG,189.96,T,,M,2.337,N,4.328,K,A*3A
$GPGGA,112249.00,2458.11714,N,12111.36921,E,1,09,0.91,130.0,M,16.4,M,,*55
$GPGSA,A,3,20,10,25,21,31,32,15,24,12,,,,1.82,0.91,1.58*08
$GPGSV,3,1,10,10,57,325,29,12,43,095,36,14,12,288,,15,21,081,32*70
$GPGSV,3,2,10,20,86,250,27,21,27,213,26,24,38,035,32,25,40,156,27*7B
$GPGSV,3,3,10,31,15,233,17,32,28,305,18*7E
$GPGLL,2458.11714,N,12111.36921,E,112249.00,A,A*60
$GPRMC,112250.00,A,2458.11650,N,12111.36889,E,2.476,196.11,140919,,,A*60
$GPVTG,196.11,T,,M,2.476,N,4.586,K,A*3B
$GPGGA,112250.00,2458.11650,N,12111.36889,E,1,09,0.91,129.8,M,16.4,M,,*5F
$GPGSA,A,3,20,10,25,21,31,32,15,24,12,,,,1.82,0.91,1.58*08
$GPGSV,3,1,10,10,57,325,28,12,43,095,36,14,12,288,,15,21,081,32*71
$GPGSV,3,2,10,20,86,250,28,21,27,213,26,24,38,035,32,25,40,156,27*74
$GPGSV,3,3,10,31,15,233,17,32,28,305,17*71
$GPGLL,2458.11650,N,12111.36889,E,112250.00,A,A*6A
$GPRMC,112251.00,A,2458.11583,N,12111.36875,E,2.346,194.49,140919,,,A*64
$GPVTG,194.49,T,,M,2.346,N,4.345,K,A*39
$GPGGA,112251.00,2458.11583,N,12111.36875,E,1,09,0.91,129.7,M,16.4,M,,*5F
$GPGSA,A,3,20,10,25,21,31,32,15,24,12,,,,1.82,0.91,1.58*08
$GPGSV,3,1,10,10,57,325,28,12,43,095,36,14,12,288,,15,21,081,29*7B
$GPGSV,3,2,10,20,86,250,28,21,27,213,27,24,38,035,33,25,40,156,28*7B
$GPGSV,3,3,10,31,15,233,17,32,28,305,16*70
$GPGLL,2458.11583,N,12111.36875,E,112251.00,A,A*65
$GPRMC,112252.00,A,2458.11513,N,12111.36860,E,2.429,192.23,140919,,,A*6E
$GPVTG,192.23,T,,M,2.429,N,4.498,K,A*3A
$GPGGA,112252.00,2458.11513,N,12111.36860,E,1,09,0.91,129.7,M,16.4,M,,*51
$GPGSA,A,3,20,10,25,21,31,32,15,24,12,,,,1.82,0.91,1.58*08
$GPGSV,3,1,10,10,57,325,29,12,43,095,36,14,12,288,,15,21,081,30*72
$GPGSV,3,2,10,20,86,250,28,21,27,213,28,24,38,035,32,25,40,156,28*75
$GPGSV,3,3,10,31,15,233,22,32,28,305,15*75
$GPGLL,2458.11513,N,12111.36860,E,112252.00,A,A*6B
$GPRMC,112253.00,A,2458.11437,N,12111.36852,E,2.556,189.12,140919,,,A*68
$GPVTG,189.12,T,,M,2.556,N,4.735,K,A*3F
$GPGGA,112253.00,2458.11437,N,12111.36852,E,1,08,1.11,129.6,M,16.4,M,,*5F
$GPGSA,A,3,20,10,25,21,31,15,24,12,,,,,2.00,1.11,1.67*05
$GPGSV,3,1,10,10,57,325,29,12,43,095,36,14,12,288,,15,21,081,30*72
$GPGSV,3,2,10,20,86,250,28,21,27,213,28,24,38,035,32,25,40,156,28*75
$GPGSV,3,3,10,31,15,233,22,32,28,305,14*74
$GPGLL,2458.11437,N,12111.36852,E,112253.00,A,A*6C
$GPRMC,112254.00,A,2458.11365,N,12111.36846,E,2.531,186.44,140919,,,A*67
$GPVTG,186.44,T,,M,2.531,N,4.687,K,A*3A
$GPGGA,112254.00,2458.11365,N,12111.36846,E,1,08,1.11,129.6,M,16.4,M,,*5D
$GPGSA,A,3,20,10,25,21,31,15,24,12,,,,,2.00,1.11,1.67*05
$GPGSV,3,1,10,10,57,325,29,12,43,095,35,14,12,288,,15,21,081,29*79
$GPGSV,3,2,10,20,86,250,28,21,27,213,28,24,38,035,32,25,40,156,27*7A
$GPGSV,3,3,10,31,15,233,21,32,28,305,11*72
$GPGLL,2458.11365,N,12111.36846,E,112254.00,A,A*6E
$GPRMC,112255.00,A,2458.11296,N,12111.36844,E,2.445,183.61,140919,,,A*69
$GPVTG,183.61,T,,M,2.445,N,4.529,K,A*3D
$GPGGA,112255.00,2458.11296,N,12111.36844,E,1,09,1.11,129.6,M,16.4,M,,*52
$GPGSA,A,3,20,10,25,21,31,32,15,24,12,,,,2.00,1.11,1.67*04
$GPGSV,3,1,10,10,57,325,29,12,43,095,37,14,12,288,,15,21,081,30*73
$GPGSV,3,2,10,20,86,250,28,21,27,213,29,24,38,035,33,25,40,156,28*75
$GPGSV,3,3,10,31,15,233,19,32,28,305,22*79
$GPGLL,2458.11296,N,12111.36844,E,112255.00,A,A*60
$GPRMC,112256.00,A,2458.11233,N,12111.36848,E,2.229,180.44,140919,,,A*61
$GPVTG,180.44,T,,M,2.229,N,4.129,K,A*31
$GPGGA,112256.00,2458.11233,N,12111.36848,E,1,08,1.11,129.7,M,16.4,M,,*52
$GPGSA,A,3,20,10,25,21,31,15,24,12,,,,,2.00,1.11,1.67*05
$GPGSV,3,1,10,10,57,325,29,12,43,095,37,14,12,288,,15,21,081,31*72
$GPGSV,3,2,10,20,86,250,28,21,27,213,29,24,38,035,33,25,40,156,28*75
$GPGSV,3,3,10,31,15,233,28,32,28,305,*7B
$GPGLL,2458.11233,N,12111.36848,E,112256.00,A,A*60
$GPRMC,112257.00,A,2458.11167,N,12111.36844,E,2.286,180.98,140919,,,A*6A
$GPVTG,180.98,T,,M,2.286,N,4.233,K,A*3D
$GPGGA,112257.00,2458.11167,N,12111.36844,E,1,08,1.11,129.7,M,16.4,M,,*5D
$GPGSA,A,3,20,10,25,21,31,15,24,12,,,,,2.00,1.11,1.67*05
$GPGSV,3,1,10,10,57,325,29,12,43,095,37,14,12,288,,15,21,081,31*72
$GPGSV,3,2,10,20,86,250,29,21,27,213,29,24,38,035,33,25,40,156,28*74
$GPGSV,3,3,10,31,15,233,26,32,28,305,*75
$GPGLL,2458.11167,N,12111.36844,E,112257.00,A,A*6F
$GPRMC,112258.00,A,2458.11102,N,12111.36839,E,2.241,182.68,140919,,,A*6A
$GPVTG,182.68,T,,M,2.241,N,4.151,K,A*3C
$GPGGA,112258.00,2458.11102,N,12111.36839,E,1,08,1.11,129.7,M,16.4,M,,*5B
$GPGSA,A,3,20,10,25,21,31,15,24,12,,,,,2.00,1.11,1.67*05
$GPGSV,3,1,10,10,57,325,29,12,43,095,37,14,12,288,,15,21,081,30*73
$GPGSV,3,2,10,20,86,250,29,21,27,213,29,24,38,035,33,25,40,156,28*74
$GPGSV,3,3,10,31,15,233,26,32,28,305,*75
$GPGLL,2458.11102,N,12111.36839,E,112258.00,A,A*69
$GPRMC,112259.00,A,2458.11033,N,12111.36825,E,2.388,185.59,140919,,,A*64
$GPVTG,185.59,T,,M,2.388,N,4.423,K,A*3D
$GPGGA,112259.00,2458.11033,N,12111.36825,E,1,09,1.11,129.5,M,16.4,M,,*57
$GPGSA,A,3,20,10,25,21,31,32,15,24,12,,,,2.00,1.11,1.67*04
$GPGSV,3,1,10,10,57,325,29,12,43,095,34,14,12,288,,15,21,081,31*71
$GPGSV,3,2,10,20,86,250,28,21,27,213,29,24,38,035,32,25,40,156,27*7B
$GPGSV,3,3,10,31,15,233,25,32,28,305,13*74
$GPGLL,2458.11033,N,12111.36825,E,112259.00,A,A*66
$GPRMC,112300.00,A,2458.10960,N,12111.36819,E,2.507,185.10,140919,,,A*64
$GPVTG,185.10,T,,M,2.507,N,4.642,K,A*34
$GPGGA,112300.00,2458.10960,N,12111.36819,E,1,09,1.11,129.4,M,16.4,M,,*5A
$GPGSA,A,3,20,10,25,21,31,32,15,24,12,,,,2.00,1.11,1.67*04
$GPGSV,3,1,10,10,57,325,29,12,43,095,35,14,12,288,,15,21,081,31*70
$GPGSV,3,2,10,20,86,250,28,21,27,213,29,24,38,035,33,25,40,156,28*75
$GPGSV,3,3,10,31,15,233,25,32,28,305,11*76
$GPGLL,2458.10960,N,12111.36819,E,112300.00,A,A*6A
$GPRMC,112301.00,A,2458.10885,N,12111.36813,E,2.542,184.70,140919,,,A*63
$GPVTG,184.70,T,,M,2.542,N,4.707,K,A*32
$GPGGA,112301.00,2458.10885,N,12111.36813,E,1,09,1.11,129.5,M,16.4,M,,*5A
$GPGSA,A,3,20,10,25,21,31,32,15,24,12,,,,2.00,1.11,1.67*04
$GPGSV,3,1,10,10,57,325,29,12,43,095,36,14,12,288,,15,21,081,30*72
$GPGSV,3,2,10,20,86,250,28,21,27,213,29,24,38,035,32,25,40,156,28*74
$GPGSV,3,3,10,31,15,233,23,32,28,305,12*73
$GPGLL,2458.10885,N,12111.36813,E,112301.00,A,A*6B
$GPRMC,112302.00,A,2458.10808,N,12111.36800,E,2.687,186.56,140919,,,A*6B
$GPVTG,186.56,T,,M,2.687,N,4.976,K,A*36
$GPGGA,112302.00,2458.10808,N,12111.36800,E,1,09,1.11,129.5,M,16.4,M,,*5E
$GPGSA,A,3,20,10,25,21,31,32,15,24,12,,,,2.00,1.11,1.67*04
$GPGSV,3,1,10,10,57,325,30,12,43,095,37,14,12,288,,15,21,081,34*7F
$GPGSV,3,2,10,20,86,250,29,21,27,213,30,24,38,035,33,25,40,156,28*7C
$GPGSV,3,3,10,31,15,233,22,32,28,305,10*70
$GPGLL,2458.10808,N,12111.36800,E,112302.00,A,A*6F
$GPRMC,112303.00,A,2458.10731,N,12111.36792,E,2.669,186.62,140919,,,A*6C
$GPVTG,186.62,T,,M,2.669,N,4.943,K,A*37
$GPGGA,112303.00,2458.10731,N,12111.36792,E,1,09,1.11,129.6,M,16.4,M,,*5D
$GPGSA,A,3,20,10,25,21,31,32,15,24,12,,,,2.00,1.11,1.67*04
$GPGSV,3,1,10,10,57,325,29,12,43,095,36,14,12,288,,15,21,081,31*73
$GPGSV,3,2,10,20,86,250,28,21,27,213,30,24,38,035,33,25,40,156,27*72
$GPGSV,3,3,10,31,15,233,21,32,28,305,17*74
$GPGLL,2458.10731,N,12111.36792,E,112303.00,A,A*6F
$GPRMC,112304.00,A,2458.10658,N,12111.36797,E,2.537,183.20,140919,,,A*6B
$GPVTG,183.20,T,,M,2.537,N,4.699,K,A*34
$GPGGA,112304.00,2458.10658,N,12111.36797,E,1,09,1.11,129.5,M,16.4,M,,*52
$GPGSA,A,3,20,10,25,21,31,32,15,24,12,,,,2.00,1.11,1.67*04
$GPGSV,3,1,10,10,57,325,29,12,43,095,36,14,12,288,,15,21,081,32*70
